stop_id,stop_name,route_id,sequence,latitude,longitude
S-000001,Stop 00001,R-0001,1,23.088046,72.507388
S-000002,Stop 00002,R-0001,2,23.086385,72.516187
S-000003,Stop 00003,R-0001,3,23.073791,72.523281
S-000004,Stop 00004,R-0001,4,23.071329,72.52523
S-000005,Stop 00005,R-0001,5,23.065818,72.530574
S-000006,Stop 00006,R-0001,6,23.059851,72.532692
S-000007,Stop 00007,R-0001,7,23.045849,72.538262
S-000008,Stop 00008,R-0001,8,23.044708,72.541562
S-000009,Stop 00009,R-0001,9,23.038851,72.549879
S-000010,Stop 00010,R-0001,10,23.028942,72.559133
S-000011,Stop 00011,R-0001,11,23.023944,72.562418
S-000012,Stop 00012,R-0001,12,23.016747,72.559712
S-000013,Stop 00013,R-0001,13,23.013572,72.564899
S-000014,Stop 00014,R-0001,14,23.001875,72.573152
S-000015,Stop 00015,R-0001,15,22.998647,72.577945
S-000016,Stop 00016,R-0001,16,22.985017,72.58174
S-000017,Stop 00017,R-0001,17,22.98408,72.585321
S-000018,Stop 00018,R-0002,1,22.922416,72.667292
S-000019,Stop 00019,R-0002,2,22.923459,72.665414
S-000020,Stop 00020,R-0002,3,22.927369,72.661049
S-000021,Stop 00021,R-0002,4,22.927865,72.654205
S-000022,Stop 00022,R-0002,5,22.918871,72.645985
S-000023,Stop 00023,R-0002,6,22.9232,72.649289
S-000024,Stop 00024,R-0002,7,22.915401,72.637086
S-000025,Stop 00025,R-0002,8,22.921934,72.639145
S-000026,Stop 00026,R-0002,9,22.916171,72.628604
S-000027,Stop 00027,R-0002,10,22.915989,72.628874
S-000028,Stop 00028,R-0002,11,22.915732,72.616303
S-000029,Stop 00029,R-0002,12,22.916458,72.614015
S-000030,Stop 00030,R-0002,13,22.917602,72.606849
S-000031,Stop 00031,R-0002,14,22.91453,72.60432
S-000032,Stop 00032,R-0002,15,22.914958,72.601174
S-000033,Stop 00033,R-0002,16,22.909956,72.596419
S-000034,Stop 00034,R-0002,17,22.914512,72.590629
S-000035,Stop 00035,R-0002,18,22.905807,72.589376
S-000036,Stop 00036,R-0003,1,23.099208,72.71817
S-000037,Stop 00037,R-0003,2,23.090819,72.721233
S-000038,Stop 00038,R-0003,3,23.076439,72.720971
S-000039,Stop 00039,R-0003,4,23.076716,72.721387
S-000040,Stop 00040,R-0003,5,23.064548,72.717717
S-000041,Stop 00041,R-0003,6,23.060787,72.720967
S-000042,Stop 00042,R-0003,7,23.053047,72.723148
S-000043,Stop 00043,R-0003,8,23.046761,72.723387
S-000044,Stop 00044,R-0003,9,23.033129,72.729557
S-000045,Stop 00045,R-0003,10,23.029074,72.731823
S-000046,Stop 00046,R-0003,11,23.021137,72.732627
S-000047,Stop 00047,R-0003,12,23.020713,72.724562
S-000048,Stop 00048,R-0003,13,23.010451,72.728429
S-000049,Stop 00049,R-0003,14,23.00493,72.732575
S-000050,Stop 00050,R-0003,15,22.999289,72.728194
S-000051,Stop 00051,R-0003,16,22.98868,72.735564
S-000052,Stop 00052,R-0003,17,22.975795,72.729408
S-000053,Stop 00053,R-0003,18,22.976075,72.733384
S-000054,Stop 00054,R-0003,19,22.964961,72.736378
S-000055,Stop 00055,R-0004,1,23.111233,72.640588
S-000056,Stop 00056,R-0004,2,23.093362,72.661166
S-000057,Stop 00057,R-0004,3,23.080582,72.681265
S-000058,Stop 00058,R-0004,4,23.064023,72.704901
S-000059,Stop 00059,R-0004,5,23.047739,72.721974
S-000060,Stop 00060,R-0004,6,23.0378,72.748265
S-000061,Stop 00061,R-0004,7,23.019513,72.771327
S-000062,Stop 00062,R-0004,8,23.003461,72.790748
S-000063,Stop 00063,R-0004,9,22.990506,72.820544
S-000064,Stop 00064,R-0004,10,22.974099,72.84218
S-000065,Stop 00065,R-0004,11,22.961356,72.856676
S-000066,Stop 00066,R-0004,12,22.950172,72.882405
S-000067,Stop 00067,R-0005,1,23.159221,72.744595
S-000068,Stop 00068,R-0005,2,23.158347,72.748756
S-000069,Stop 00069,R-0005,3,23.154773,72.748386
S-000070,Stop 00070,R-0005,4,23.153018,72.746594
S-000071,Stop 00071,R-0005,5,23.149941,72.747666
S-000072,Stop 00072,R-0005,6,23.15346,72.755493
S-000073,Stop 00073,R-0005,7,23.147529,72.754506
S-000074,Stop 00074,R-0005,8,23.147454,72.763142
S-000075,Stop 00075,R-0005,9,23.152555,72.758059
S-000076,Stop 00076,R-0005,10,23.148998,72.7617
S-000077,Stop 00077,R-0005,11,23.149204,72.765165
S-000078,Stop 00078,R-0005,12,23.152735,72.764189
S-000079,Stop 00079,R-0005,13,23.15117,72.765949
S-000080,Stop 00080,R-0005,14,23.145733,72.774861
S-000081,Stop 00081,R-0005,15,23.145961,72.7742
S-000082,Stop 00082,R-0005,16,23.144692,72.778241
S-000083,Stop 00083,R-0005,17,23.141275,72.778063
S-000084,Stop 00084,R-0005,18,23.140186,72.781951
S-000085,Stop 00085,R-0005,19,23.144042,72.780976
S-000086,Stop 00086,R-0005,20,23.146582,72.787606
S-000087,Stop 00087,R-0005,21,23.143593,72.792171
S-000088,Stop 00088,R-0005,22,23.138428,72.791922
S-000089,Stop 00089,R-0006,1,23.068926,72.831943
S-000090,Stop 00090,R-0006,2,23.066146,72.829997
S-000091,Stop 00091,R-0006,3,23.074945,72.832247
S-000092,Stop 00092,R-0006,4,23.077566,72.836796
S-000093,Stop 00093,R-0006,5,23.073424,72.834011
S-000094,Stop 00094,R-0006,6,23.07504,72.844401
S-000095,Stop 00095,R-0006,7,23.078315,72.842703
S-000096,Stop 00096,R-0006,8,23.084207,72.839002
S-000097,Stop 00097,R-0006,9,23.086966,72.845601
S-000098,Stop 00098,R-0007,1,22.965081,72.617
S-000099,Stop 00099,R-0007,2,22.96835,72.612073
S-000100,Stop 00100,R-0007,3,22.96453,72.607051
S-000101,Stop 00101,R-0007,4,22.959889,72.605393
S-000102,Stop 00102,R-0007,5,22.956698,72.610233
S-000103,Stop 00103,R-0007,6,22.94582,72.602573
S-000104,Stop 00104,R-0007,7,22.944855,72.604588
S-000105,Stop 00105,R-0007,8,22.935398,72.605238
S-000106,Stop 00106,R-0007,9,22.936511,72.600709
S-000107,Stop 00107,R-0007,10,22.930037,72.594681
S-000108,Stop 00108,R-0007,11,22.931051,72.594235
S-000109,Stop 00109,R-0007,12,22.923473,72.595002
S-000110,Stop 00110,R-0008,1,23.008846,72.647915
S-000111,Stop 00111,R-0008,2,23.002607,72.645699
S-000112,Stop 00112,R-0008,3,22.999809,72.643375
S-000113,Stop 00113,R-0008,4,23.000142,72.64136
S-000114,Stop 00114,R-0008,5,22.998671,72.630619
S-000115,Stop 00115,R-0008,6,22.98874,72.631488
S-000116,Stop 00116,R-0008,7,22.984342,72.627096
S-000117,Stop 00117,R-0008,8,22.979943,72.621471
S-000118,Stop 00118,R-0008,9,22.974353,72.618453
S-000119,Stop 00119,R-0008,10,22.973343,72.618265
S-000120,Stop 00120,R-0008,11,22.968101,72.617324
S-000121,Stop 00121,R-0008,12,22.963332,72.608505
S-000122,Stop 00122,R-0008,13,22.963629,72.604918
S-000123,Stop 00123,R-0009,1,22.951325,72.791798
S-000124,Stop 00124,R-0009,2,22.951136,72.778081
S-000125,Stop 00125,R-0009,3,22.946187,72.772792
S-000126,Stop 00126,R-0009,4,22.950816,72.761351
S-000127,Stop 00127,R-0009,5,22.94772,72.743557
S-000128,Stop 00128,R-0009,6,22.94588,72.733321
S-000129,Stop 00129,R-0009,7,22.954005,72.723259
S-000130,Stop 00130,R-0009,8,22.949694,72.710428
S-000131,Stop 00131,R-0009,9,22.953266,72.697714
S-000132,Stop 00132,R-0009,10,22.953426,72.689024
S-000133,Stop 00133,R-0009,11,22.952046,72.673753
S-000134,Stop 00134,R-0009,12,22.94822,72.664141
S-000135,Stop 00135,R-0009,13,22.945968,72.652314
S-000136,Stop 00136,R-0010,1,23.104247,72.836645
S-000137,Stop 00137,R-0010,2,23.108929,72.813114
S-000138,Stop 00138,R-0010,3,23.112709,72.783691
S-000139,Stop 00139,R-0010,4,23.110809,72.751267
S-000140,Stop 00140,R-0010,5,23.116301,72.732888
S-000141,Stop 00141,R-0010,6,23.121193,72.699396
S-000142,Stop 00142,R-0010,7,23.120104,72.674484
S-000143,Stop 00143,R-0010,8,23.125721,72.641582
S-000144,Stop 00144,R-0010,9,23.125143,72.621035
S-000145,Stop 00145,R-0010,10,23.13584,72.591812
S-000146,Stop 00146,R-0011,1,22.964358,72.877319
S-000147,Stop 00147,R-0011,2,22.979721,72.85545
S-000148,Stop 00148,R-0011,3,22.996214,72.836381
S-000149,Stop 00149,R-0011,4,23.020129,72.806622
S-000150,Stop 00150,R-0011,5,23.034246,72.789068
S-000151,Stop 00151,R-0011,6,23.054352,72.765027
S-000152,Stop 00152,R-0011,7,23.070174,72.743253
S-000153,Stop 00153,R-0011,8,23.089006,72.718988
S-000154,Stop 00154,R-0011,9,23.113269,72.695242
S-000155,Stop 00155,R-0011,10,23.129584,72.673814
S-000156,Stop 00156,R-0011,11,23.146644,72.643982
S-000157,Stop 00157,R-0011,12,23.162656,72.630542
S-000158,Stop 00158,R-0012,1,23.03987,72.606787
S-000159,Stop 00159,R-0012,2,23.029813,72.615713
S-000160,Stop 00160,R-0012,3,23.029758,72.626306
S-000161,Stop 00161,R-0012,4,23.020491,72.633172
S-000162,Stop 00162,R-0012,5,23.014781,72.644318
S-000163,Stop 00163,R-0012,6,23.011016,72.643497
S-000164,Stop 00164,R-0012,7,23.008507,72.653293
S-000165,Stop 00165,R-0012,8,23.007727,72.664353
S-000166,Stop 00166,R-0012,9,23.004024,72.677926
S-000167,Stop 00167,R-0012,10,23.000455,72.68455
S-000168,Stop 00168,R-0012,11,22.987802,72.687044
S-000169,Stop 00169,R-0012,12,22.984705,72.697384
S-000170,Stop 00170,R-0012,13,22.984706,72.70786
S-000171,Stop 00171,R-0012,14,22.976673,72.712808
S-000172,Stop 00172,R-0012,15,22.978109,72.72297
S-000173,Stop 00173,R-0013,1,23.021579,72.591405
S-000174,Stop 00174,R-0013,2,23.031596,72.597214
S-000175,Stop 00175,R-0013,3,23.037402,72.600468
S-000176,Stop 00176,R-0013,4,23.0543,72.604865
S-000177,Stop 00177,R-0013,5,23.057681,72.617939
S-000178,Stop 00178,R-0013,6,23.074487,72.622685
S-000179,Stop 00179,R-0013,7,23.081683,72.628325
S-000180,Stop 00180,R-0013,8,23.089493,72.632669
S-000181,Stop 00181,R-0013,9,23.100176,72.643665
S-000182,Stop 00182,R-0013,10,23.111757,72.643647
S-000183,Stop 00183,R-0013,11,23.120244,72.65265
S-000184,Stop 00184,R-0013,12,23.133436,72.657613
S-000185,Stop 00185,R-0013,13,23.137899,72.667847
S-000186,Stop 00186,R-0013,14,23.145881,72.666986
S-000187,Stop 00187,R-0013,15,23.163938,72.673805
S-000188,Stop 00188,R-0013,16,23.173594,72.686024
S-000189,Stop 00189,R-0013,17,23.181796,72.688053
S-000190,Stop 00190,R-0013,18,23.192572,72.695073
S-000191,Stop 00191,R-0013,19,23.199881,72.701527
S-000192,Stop 00192,R-0014,1,23.089391,72.8177
S-000193,Stop 00193,R-0014,2,23.0795,72.789388
S-000194,Stop 00194,R-0014,3,23.076227,72.759927
S-000195,Stop 00195,R-0014,4,23.065283,72.728539
S-000196,Stop 00196,R-0014,5,23.065773,72.696269
S-000197,Stop 00197,R-0014,6,23.060149,72.666173
S-000198,Stop 00198,R-0014,7,23.051786,72.64627
S-000199,Stop 00199,R-0014,8,23.044193,72.617188
S-000200,Stop 00200,R-0014,9,23.042749,72.58347
S-000201,Stop 00201,R-0014,10,23.029801,72.559192
S-000202,Stop 00202,R-0014,11,23.02486,72.52687
S-000203,Stop 00203,R-0015,1,23.192847,72.841634
S-000204,Stop 00204,R-0015,2,23.161724,72.841591
S-000205,Stop 00205,R-0015,3,23.122724,72.836077
S-000206,Stop 00206,R-0015,4,23.094543,72.829014
S-000207,Stop 00207,R-0015,5,23.067717,72.814776
S-000208,Stop 00208,R-0015,6,23.034753,72.816068
S-000209,Stop 00209,R-0015,7,22.996267,72.809453
S-000210,Stop 00210,R-0015,8,22.97114,72.798633
S-000211,Stop 00211,R-0015,9,22.930805,72.792498
S-000212,Stop 00212,R-0015,10,22.904472,72.792574
S-000213,Stop 00213,R-0016,1,23.090135,72.549512
S-000214,Stop 00214,R-0016,2,23.089083,72.552611
S-000215,Stop 00215,R-0016,3,23.089397,72.564234
S-000216,Stop 00216,R-0016,4,23.081053,72.565702
S-000217,Stop 00217,R-0016,5,23.07386,72.57345
S-000218,Stop 00218,R-0016,6,23.073684,72.582449
S-000219,Stop 00219,R-0016,7,23.067318,72.595294
S-000220,Stop 00220,R-0016,8,23.069725,72.601656
S-000221,Stop 00221,R-0016,9,23.065752,72.605784
S-000222,Stop 00222,R-0016,10,23.063102,72.621051
S-000223,Stop 00223,R-0016,11,23.059171,72.625284
S-000224,Stop 00224,R-0016,12,23.04813,72.634875
S-000225,Stop 00225,R-0016,13,23.045472,72.63764
S-000226,Stop 00226,R-0016,14,23.043221,72.646765
S-000227,Stop 00227,R-0016,15,23.038954,72.654691
S-000228,Stop 00228,R-0016,16,23.040245,72.669927
S-000229,Stop 00229,R-0016,17,23.032088,72.675667
S-000230,Stop 00230,R-0016,18,23.025544,72.683026
S-000231,Stop 00231,R-0017,1,23.045797,72.567643
S-000232,Stop 00232,R-0017,2,23.057073,72.590283
S-000233,Stop 00233,R-0017,3,23.06786,72.614947
S-000234,Stop 00234,R-0017,4,23.0787,72.628873
S-000235,Stop 00235,R-0017,5,23.081668,72.654693
S-000236,Stop 00236,R-0017,6,23.092274,72.671445
S-000237,Stop 00237,R-0017,7,23.100344,72.686402
S-000238,Stop 00238,R-0017,8,23.108514,72.712311
S-000239,Stop 00239,R-0017,9,23.121869,72.72876
S-000240,Stop 00240,R-0017,10,23.130133,72.749077
S-000241,Stop 00241,R-0017,11,23.138845,72.770778
S-000242,Stop 00242,R-0017,12,23.144484,72.786379
S-000243,Stop 00243,R-0017,13,23.158677,72.812403
S-000244,Stop 00244,R-0017,14,23.160777,72.827907
S-000245,Stop 00245,R-0017,15,23.175826,72.843988
S-000246,Stop 00246,R-0018,1,22.94147,72.80548
S-000247,Stop 00247,R-0018,2,22.957503,72.806376
S-000248,Stop 00248,R-0018,3,22.965543,72.804575
S-000249,Stop 00249,R-0018,4,22.980844,72.803101
S-000250,Stop 00250,R-0018,5,22.989291,72.808414
S-000251,Stop 00251,R-0018,6,22.999742,72.808331
S-000252,Stop 00252,R-0018,7,23.018516,72.808407
S-000253,Stop 00253,R-0018,8,23.027158,72.809085
S-000254,Stop 00254,R-0018,9,23.034199,72.809785
S-000255,Stop 00255,R-0018,10,23.053287,72.813039
S-000256,Stop 00256,R-0018,11,23.060773,72.814616
S-000257,Stop 00257,R-0019,1,22.906626,72.867092
S-000258,Stop 00258,R-0019,2,22.924117,72.864279
S-000259,Stop 00259,R-0019,3,22.950442,72.869989
S-000260,Stop 00260,R-0019,4,22.961019,72.866983
S-000261,Stop 00261,R-0019,5,22.980475,72.858736
S-000262,Stop 00262,R-0019,6,23.007677,72.859308
S-000263,Stop 00263,R-0019,7,23.029599,72.85511
S-000264,Stop 00264,R-0019,8,23.043848,72.855582
S-000265,Stop 00265,R-0019,9,23.063298,72.851352
S-000266,Stop 00266,R-0019,10,23.08837,72.843414
S-000267,Stop 00267,R-0019,11,23.105958,72.843278
S-000268,Stop 00268,R-0019,12,23.124352,72.840197
S-000269,Stop 00269,R-0019,13,23.142266,72.832449
S-000270,Stop 00270,R-0019,14,23.16399,72.832954
S-000271,Stop 00271,R-0020,1,23.187433,72.536823
S-000272,Stop 00272,R-0020,2,23.178992,72.533421
S-000273,Stop 00273,R-0020,3,23.166521,72.532563
S-000274,Stop 00274,R-0020,4,23.153245,72.530148
S-000275,Stop 00275,R-0020,5,23.14418,72.528933
S-000276,Stop 00276,R-0020,6,23.131581,72.535665
S-000277,Stop 00277,R-0020,7,23.127474,72.526765
S-000278,Stop 00278,R-0020,8,23.116543,72.532122
S-000279,Stop 00279,R-0020,9,23.109426,72.534394
S-000280,Stop 00280,R-0020,10,23.092592,72.525706
S-000281,Stop 00281,R-0020,11,23.086247,72.529028
S-000282,Stop 00282,R-0020,12,23.07715,72.532816
S-000283,Stop 00283,R-0020,13,23.063,72.524067
S-000284,Stop 00284,R-0020,14,23.055064,72.528552
S-000285,Stop 00285,R-0020,15,23.048341,72.530446
S-000286,Stop 00286,R-0021,1,23.042624,72.717814
S-000287,Stop 00287,R-0021,2,23.040009,72.733968
S-000288,Stop 00288,R-0021,3,23.029307,72.744364
S-000289,Stop 00289,R-0021,4,23.02711,72.753324
S-000290,Stop 00290,R-0021,5,23.017669,72.763282
S-000291,Stop 00291,R-0021,6,23.01552,72.775791
S-000292,Stop 00292,R-0021,7,23.006189,72.785923
S-000293,Stop 00293,R-0021,8,23.006936,72.805842
S-000294,Stop 00294,R-0021,9,23.000833,72.815037
S-000295,Stop 00295,R-0021,10,22.990256,72.825465
S-000296,Stop 00296,R-0021,11,22.989973,72.841657
S-000297,Stop 00297,R-0021,12,22.98123,72.851831
S-000298,Stop 00298,R-0022,1,23.120942,72.579543
S-000299,Stop 00299,R-0022,2,23.109598,72.595981
S-000300,Stop 00300,R-0022,3,23.104598,72.615234
S-000301,Stop 00301,R-0022,4,23.094092,72.640082
S-000302,Stop 00302,R-0022,5,23.085902,72.65482
S-000303,Stop 00303,R-0022,6,23.077654,72.672999
S-000304,Stop 00304,R-0022,7,23.073863,72.692854
S-000305,Stop 00305,R-0022,8,23.066202,72.708786
S-000306,Stop 00306,R-0022,9,23.05824,72.72571
S-000307,Stop 00307,R-0022,10,23.052055,72.747312
S-000308,Stop 00308,R-0022,11,23.045533,72.770578
S-000309,Stop 00309,R-0022,12,23.033312,72.784738
S-000310,Stop 00310,R-0022,13,23.031466,72.800044
S-000311,Stop 00311,R-0022,14,23.018764,72.826377
S-000312,Stop 00312,R-0022,15,23.016532,72.843727
S-000313,Stop 00313,R-0022,16,23.005446,72.857784
S-000314,Stop 00314,R-0022,17,23.004966,72.87741
S-000315,Stop 00315,R-0022,18,22.997605,72.895178
S-000316,Stop 00316,R-0023,1,22.940922,72.586052
S-000317,Stop 00317,R-0023,2,22.946306,72.600856
S-000318,Stop 00318,R-0023,3,22.943746,72.613299
S-000319,Stop 00319,R-0023,4,22.948375,72.627594
S-000320,Stop 00320,R-0023,5,22.95686,72.637386
S-000321,Stop 00321,R-0023,6,22.960156,72.646156
S-000322,Stop 00322,R-0023,7,22.964951,72.654623
S-000323,Stop 00323,R-0023,8,22.971496,72.668168
S-000324,Stop 00324,R-0023,9,22.972364,72.684196
S-000325,Stop 00325,R-0023,10,22.981082,72.693968
S-000326,Stop 00326,R-0023,11,22.99054,72.700466
S-000327,Stop 00327,R-0023,12,22.990546,72.713572
S-000328,Stop 00328,R-0023,13,22.993629,72.720594
S-000329,Stop 00329,R-0023,14,22.999034,72.739671
S-000330,Stop 00330,R-0024,1,23.087283,72.588539
S-000331,Stop 00331,R-0024,2,23.090746,72.604889
S-000332,Stop 00332,R-0024,3,23.095018,72.617311
S-000333,Stop 00333,R-0024,4,23.10611,72.627794
S-000334,Stop 00334,R-0024,5,23.108424,72.641919
S-000335,Stop 00335,R-0024,6,23.11214,72.657042
S-000336,Stop 00336,R-0024,7,23.113628,72.669588
S-000337,Stop 00337,R-0024,8,23.116656,72.676274
S-000338,Stop 00338,R-0024,9,23.122714,72.689328
S-000339,Stop 00339,R-0024,10,23.130257,72.710005
S-000340,Stop 00340,R-0024,11,23.135051,72.717955
S-000341,Stop 00341,R-0024,12,23.137984,72.726073
S-000342,Stop 00342,R-0024,13,23.141888,72.738428
S-000343,Stop 00343,R-0024,14,23.137887,72.751932
S-000344,Stop 00344,R-0024,15,23.148245,72.763851
S-000345,Stop 00345,R-0024,16,23.147563,72.777972
S-000346,Stop 00346,R-0024,17,23.154727,72.789003
S-000347,Stop 00347,R-0024,18,23.160659,72.810351
S-000348,Stop 00348,R-0024,19,23.167524,72.820219
S-000349,Stop 00349,R-0024,20,23.162669,72.831562
S-000350,Stop 00350,R-0024,21,23.170739,72.839021
S-000351,Stop 00351,R-0025,1,22.964628,72.550792
S-000352,Stop 00352,R-0025,2,22.978719,72.566603
S-000353,Stop 00353,R-0025,3,22.992428,72.580721
S-000354,Stop 00354,R-0025,4,23.00434,72.592204
S-000355,Stop 00355,R-0025,5,23.022217,72.597133
S-000356,Stop 00356,R-0025,6,23.037596,72.608947
S-000357,Stop 00357,R-0025,7,23.049369,72.626071
S-000358,Stop 00358,R-0025,8,23.06104,72.639414
S-000359,Stop 00359,R-0025,9,23.079265,72.643953
S-000360,Stop 00360,R-0025,10,23.096073,72.65622
S-000361,Stop 00361,R-0025,11,23.111807,72.665726
S-000362,Stop 00362,R-0025,12,23.127869,72.683118
S-000363,Stop 00363,R-0025,13,23.132694,72.692371
S-000364,Stop 00364,R-0025,14,23.150575,72.704778
S-000365,Stop 00365,R-0025,15,23.167596,72.718746
S-000366,Stop 00366,R-0025,16,23.176481,72.73187
S-000367,Stop 00367,R-0026,1,22.957782,72.542352
S-000368,Stop 00368,R-0026,2,22.957323,72.546739
S-000369,Stop 00369,R-0026,3,22.961042,72.551258
S-000370,Stop 00370,R-0026,4,22.973544,72.565705
S-000371,Stop 00371,R-0026,5,22.973864,72.564981
S-000372,Stop 00372,R-0026,6,22.974099,72.581457
S-000373,Stop 00373,R-0026,7,22.986596,72.585522
S-000374,Stop 00374,R-0026,8,22.982178,72.59686
S-000375,Stop 00375,R-0026,9,22.989241,72.604873
S-000376,Stop 00376,R-0026,10,22.996213,72.610467
S-000377,Stop 00377,R-0026,11,23.001716,72.614613
S-000378,Stop 00378,R-0026,12,22.999605,72.619941
S-000379,Stop 00379,R-0026,13,23.005487,72.634348
S-000380,Stop 00380,R-0026,14,23.01122,72.642653
S-000381,Stop 00381,R-0026,15,23.014893,72.64893
S-000382,Stop 00382,R-0026,16,23.017221,72.658944
S-000383,Stop 00383,R-0026,17,23.02731,72.661753
S-000384,Stop 00384,R-0026,18,23.034058,72.664968
S-000385,Stop 00385,R-0027,1,23.192571,72.535127
S-000386,Stop 00386,R-0027,2,23.187578,72.545323
S-000387,Stop 00387,R-0027,3,23.17876,72.553692
S-000388,Stop 00388,R-0027,4,23.167344,72.555161
S-000389,Stop 00389,R-0027,5,23.163193,72.558143
S-000390,Stop 00390,R-0027,6,23.148915,72.563986
S-000391,Stop 00391,R-0027,7,23.141665,72.565131
S-000392,Stop 00392,R-0027,8,23.135046,72.571892
S-000393,Stop 00393,R-0027,9,23.128186,72.575862
S-000394,Stop 00394,R-0027,10,23.114206,72.578461
S-000395,Stop 00395,R-0027,11,23.105698,72.586344
S-000396,Stop 00396,R-0027,12,23.102134,72.588904
S-000397,Stop 00397,R-0027,13,23.089468,72.595786
S-000398,Stop 00398,R-0027,14,23.077764,72.606427
S-000399,Stop 00399,R-0027,15,23.072573,72.609428
S-000400,Stop 00400,R-0027,16,23.060424,72.607505
S-000401,Stop 00401,R-0027,17,23.054989,72.61702
S-000402,Stop 00402,R-0027,18,23.04708,72.617301
S-000403,Stop 00403,R-0027,19,23.034129,72.626628
S-000404,Stop 00404,R-0027,20,23.030478,72.633748
S-000405,Stop 00405,R-0027,21,23.024423,72.630844
S-000406,Stop 00406,R-0028,1,23.033462,72.6646
S-000407,Stop 00407,R-0028,2,23.036044,72.669364
S-000408,Stop 00408,R-0028,3,23.034264,72.66259
S-000409,Stop 00409,R-0028,4,23.023627,72.657236
S-000410,Stop 00410,R-0028,5,23.020768,72.652998
S-000411,Stop 00411,R-0028,6,23.02176,72.647178
S-000412,Stop 00412,R-0028,7,23.018625,72.647315
S-000413,Stop 00413,R-0028,8,23.016569,72.640432
S-000414,Stop 00414,R-0028,9,23.011693,72.638687
S-000415,Stop 00415,R-0028,10,23.012875,72.638718
S-000416,Stop 00416,R-0028,11,23.006029,72.630408
S-000417,Stop 00417,R-0028,12,23.00457,72.635385
S-000418,Stop 00418,R-0028,13,23.002294,72.628657
S-000419,Stop 00419,R-0028,14,23.004462,72.622309
S-000420,Stop 00420,R-0028,15,22.997217,72.623727
S-000421,Stop 00421,R-0028,16,22.999914,72.621873
S-000422,Stop 00422,R-0028,17,22.990129,72.611896
S-000423,Stop 00423,R-0028,18,22.99569,72.607256
S-000424,Stop 00424,R-0028,19,22.986808,72.611452
S-000425,Stop 00425,R-0028,20,22.990802,72.601279
S-000426,Stop 00426,R-0028,21,22.985514,72.599833
S-000427,Stop 00427,R-0029,1,23.063357,72.518038
S-000428,Stop 00428,R-0029,2,23.077577,72.541326
S-000429,Stop 00429,R-0029,3,23.08866,72.562115
S-000430,Stop 00430,R-0029,4,23.098932,72.584358
S-000431,Stop 00431,R-0029,5,23.106256,72.605269
S-000432,Stop 00432,R-0029,6,23.115473,72.63687
S-000433,Stop 00433,R-0029,7,23.119917,72.657859
S-000434,Stop 00434,R-0029,8,23.135754,72.673015
S-000435,Stop 00435,R-0029,9,23.14554,72.702715
S-000436,Stop 00436,R-0029,10,23.153412,72.718597
S-000437,Stop 00437,R-0029,11,23.159331,72.742173
S-000438,Stop 00438,R-0029,12,23.167465,72.766319
S-000439,Stop 00439,R-0029,13,23.179314,72.789019
S-000440,Stop 00440,R-0029,14,23.191144,72.812792
S-000441,Stop 00441,R-0029,15,23.200129,72.838646
S-000442,Stop 00442,R-0030,1,22.950329,72.697163
S-000443,Stop 00443,R-0030,2,22.9492,72.696519
S-000444,Stop 00444,R-0030,3,22.951685,72.692254
S-000445,Stop 00445,R-0030,4,22.947877,72.69187
S-000446,Stop 00446,R-0030,5,22.954315,72.686038
S-000447,Stop 00447,R-0030,6,22.954921,72.681239
S-000448,Stop 00448,R-0030,7,22.958998,72.685879
S-000449,Stop 00449,R-0030,8,22.95387,72.684939
S-000450,Stop 00450,R-0030,9,22.960243,72.680025
S-000451,Stop 00451,R-0030,10,22.951402,72.676615
S-000452,Stop 00452,R-0030,11,22.957115,72.677524
S-000453,Stop 00453,R-0030,12,22.958525,72.676396
S-000454,Stop 00454,R-0030,13,22.957889,72.672863
S-000455,Stop 00455,R-0030,14,22.961867,72.673146
S-000456,Stop 00456,R-0030,15,22.959859,72.669018
S-000457,Stop 00457,R-0030,16,22.955812,72.664921
S-000458,Stop 00458,R-0030,17,22.960438,72.671801
S-000459,Stop 00459,R-0030,18,22.95815,72.669899
S-000460,Stop 00460,R-0030,19,22.959118,72.661919
S-000461,Stop 00461,R-0030,20,22.962966,72.659177
S-000462,Stop 00462,R-0030,21,22.963953,72.660178
S-000463,Stop 00463,R-0031,1,22.981781,72.813152
S-000464,Stop 00464,R-0031,2,22.977944,72.802197
S-000465,Stop 00465,R-0031,3,22.987092,72.795099
S-000466,Stop 00466,R-0031,4,22.986126,72.789089
S-000467,Stop 00467,R-0031,5,22.993408,72.790418
S-000468,Stop 00468,R-0031,6,22.995524,72.779401
S-000469,Stop 00469,R-0031,7,22.996349,72.770674
S-000470,Stop 00470,R-0031,8,22.997805,72.765107
S-000471,Stop 00471,R-0031,9,23.004231,72.759907
S-000472,Stop 00472,R-0031,10,23.000829,72.753305
S-000473,Stop 00473,R-0031,11,23.005632,72.747228
S-000474,Stop 00474,R-0031,12,23.013219,72.737473
S-000475,Stop 00475,R-0031,13,23.011395,72.726144
S-000476,Stop 00476,R-0031,14,23.011959,72.722005
S-000477,Stop 00477,R-0031,15,23.01956,72.720305
S-000478,Stop 00478,R-0031,16,23.021007,72.713462
S-000479,Stop 00479,R-0031,17,23.023314,72.702248
S-000480,Stop 00480,R-0031,18,23.022628,72.692852
S-000481,Stop 00481,R-0031,19,23.030075,72.68973
S-000482,Stop 00482,R-0031,20,23.035739,72.681092
S-000483,Stop 00483,R-0031,21,23.032678,72.675006
S-000484,Stop 00484,R-0031,22,23.032645,72.667723
S-000485,Stop 00485,R-0032,1,23.116696,72.565056
S-000486,Stop 00486,R-0032,2,23.111558,72.575397
S-000487,Stop 00487,R-0032,3,23.104618,72.588773
S-000488,Stop 00488,R-0032,4,23.093789,72.604607
S-000489,Stop 00489,R-0032,5,23.089479,72.620762
S-000490,Stop 00490,R-0032,6,23.087335,72.639543
S-000491,Stop 00491,R-0032,7,23.078559,72.651316
S-000492,Stop 00492,R-0032,8,23.072189,72.667298
S-000493,Stop 00493,R-0032,9,23.068683,72.687878
S-000494,Stop 00494,R-0032,10,23.062756,72.706446
S-000495,Stop 00495,R-0032,11,23.055828,72.716846
S-000496,Stop 00496,R-0032,12,23.045658,72.730599
S-000497,Stop 00497,R-0032,13,23.042741,72.743492
S-000498,Stop 00498,R-0032,14,23.035797,72.758555
S-000499,Stop 00499,R-0032,15,23.027547,72.782114
S-000500,Stop 00500,R-0032,16,23.029796,72.79452
S-000501,Stop 00501,R-0032,17,23.019083,72.811815
S-000502,Stop 00502,R-0032,18,23.012265,72.828871
S-000503,Stop 00503,R-0032,19,23.006972,72.836801
S-000504,Stop 00504,R-0032,20,22.996369,72.859088
S-000505,Stop 00505,R-0032,21,22.992957,72.869729
S-000506,Stop 00506,R-0032,22,22.989388,72.884166
S-000507,Stop 00507,R-0033,1,22.917807,72.736396
S-000508,Stop 00508,R-0033,2,22.92347,72.738894
S-000509,Stop 00509,R-0033,3,22.930611,72.74158
S-000510,Stop 00510,R-0033,4,22.936682,72.753925
S-000511,Stop 00511,R-0033,5,22.943038,72.756699
S-000512,Stop 00512,R-0033,6,22.951585,72.75866
S-000513,Stop 00513,R-0033,7,22.952537,72.763613
S-000514,Stop 00514,R-0033,8,22.964078,72.771013
S-000515,Stop 00515,R-0033,9,22.965561,72.77834
S-000516,Stop 00516,R-0033,10,22.969774,72.777335
S-000517,Stop 00517,R-0033,11,22.984441,72.780692
S-000518,Stop 00518,R-0033,12,22.990839,72.786111
S-000519,Stop 00519,R-0033,13,22.996672,72.792151
S-000520,Stop 00520,R-0033,14,23.002296,72.802059
S-000521,Stop 00521,R-0033,15,23.009897,72.806385
S-000522,Stop 00522,R-0033,16,23.011935,72.811559
S-000523,Stop 00523,R-0033,17,23.021869,72.818648
S-000524,Stop 00524,R-0033,18,23.028442,72.821328
S-000525,Stop 00525,R-0033,19,23.032077,72.826711
S-000526,Stop 00526,R-0033,20,23.034805,72.835648
S-000527,Stop 00527,R-0033,21,23.042414,72.8367
S-000528,Stop 00528,R-0033,22,23.055379,72.841232
S-000529,Stop 00529,R-0034,1,22.952103,72.740515
S-000530,Stop 00530,R-0034,2,22.969545,72.719214
S-000531,Stop 00531,R-0034,3,22.982884,72.710787
S-000532,Stop 00532,R-0034,4,23.001806,72.691161
S-000533,Stop 00533,R-0034,5,23.010936,72.678662
S-000534,Stop 00534,R-0034,6,23.026631,72.669484
S-000535,Stop 00535,R-0034,7,23.042764,72.648077
S-000536,Stop 00536,R-0034,8,23.059843,72.63854
S-000537,Stop 00537,R-0034,9,23.071952,72.618624
S-000538,Stop 00538,R-0034,10,23.090828,72.611164
S-000539,Stop 00539,R-0034,11,23.101593,72.59658
S-000540,Stop 00540,R-0035,1,23.077903,72.747633
S-000541,Stop 00541,R-0035,2,23.076254,72.750649
S-000542,Stop 00542,R-0035,3,23.075984,72.742097
S-000543,Stop 00543,R-0035,4,23.074313,72.746721
S-000544,Stop 00544,R-0035,5,23.068642,72.74808
S-000545,Stop 00545,R-0035,6,23.066705,72.742762
S-000546,Stop 00546,R-0035,7,23.065508,72.74624
S-000547,Stop 00547,R-0035,8,23.057852,72.740427
S-000548,Stop 00548,R-0035,9,23.052819,72.741878
S-000549,Stop 00549,R-0035,10,23.048367,72.744135
S-000550,Stop 00550,R-0035,11,23.052023,72.743759
S-000551,Stop 00551,R-0035,12,23.048841,72.734483
S-000552,Stop 00552,R-0035,13,23.044558,72.741597
S-000553,Stop 00553,R-0035,14,23.035538,72.741731
S-000554,Stop 00554,R-0035,15,23.034033,72.736208
S-000555,Stop 00555,R-0035,16,23.03945,72.735128
S-000556,Stop 00556,R-0035,17,23.036567,72.73915
S-000557,Stop 00557,R-0035,18,23.03251,72.732281
S-000558,Stop 00558,R-0035,19,23.029511,72.737235
S-000559,Stop 00559,R-0036,1,23.116404,72.592978
S-000560,Stop 00560,R-0036,2,23.102896,72.618757
S-000561,Stop 00561,R-0036,3,23.090153,72.632927
S-000562,Stop 00562,R-0036,4,23.080872,72.655202
S-000563,Stop 00563,R-0036,5,23.069479,72.674008
S-000564,Stop 00564,R-0036,6,23.063494,72.686708
S-000565,Stop 00565,R-0036,7,23.050545,72.707269
S-000566,Stop 00566,R-0036,8,23.037358,72.731986
S-000567,Stop 00567,R-0036,9,23.024509,72.751387
S-000568,Stop 00568,R-0036,10,23.021907,72.773558
S-000569,Stop 00569,R-0037,1,22.923703,72.683091
S-000570,Stop 00570,R-0037,2,22.932941,72.689964
S-000571,Stop 00571,R-0037,3,22.9526,72.700859
S-000572,Stop 00572,R-0037,4,22.962105,72.713575
S-000573,Stop 00573,R-0037,5,22.976145,72.729473
S-000574,Stop 00574,R-0037,6,22.994951,72.738511
S-000575,Stop 00575,R-0037,7,23.006866,72.743536
S-000576,Stop 00576,R-0037,8,23.019616,72.759711
S-000577,Stop 00577,R-0037,9,23.029513,72.767876
S-000578,Stop 00578,R-0037,10,23.043891,72.782603
S-000579,Stop 00579,R-0037,11,23.064848,72.792037
S-000580,Stop 00580,R-0037,12,23.073962,72.798805
S-000581,Stop 00581,R-0037,13,23.092393,72.808789
S-000582,Stop 00582,R-0037,14,23.098547,72.825445
S-000583,Stop 00583,R-0037,15,23.114719,72.833195
S-000584,Stop 00584,R-0037,16,23.133004,72.842136
S-000585,Stop 00585,R-0037,17,23.145428,72.852896
S-000586,Stop 00586,R-0037,18,23.15888,72.868382
S-000587,Stop 00587,R-0037,19,23.169608,72.881339
S-000588,Stop 00588,R-0037,20,23.180916,72.891153
S-000589,Stop 00589,R-0037,21,23.203294,72.895493
S-000590,Stop 00590,R-0038,1,23.176864,72.851264
S-000591,Stop 00591,R-0038,2,23.180735,72.846291
S-000592,Stop 00592,R-0038,3,23.181507,72.831954
S-000593,Stop 00593,R-0038,4,23.176724,72.823078
S-000594,Stop 00594,R-0038,5,23.178542,72.812485
S-000595,Stop 00595,R-0038,6,23.180344,72.803003
S-000596,Stop 00596,R-0038,7,23.174364,72.797154
S-000597,Stop 00597,R-0038,8,23.173917,72.793486
S-000598,Stop 00598,R-0038,9,23.173553,72.781667
S-000599,Stop 00599,R-0038,10,23.170368,72.772021
S-000600,Stop 00600,R-0038,11,23.177809,72.759148
S-000601,Stop 00601,R-0038,12,23.173105,72.749663
S-000602,Stop 00602,R-0038,13,23.168685,72.749858
S-000603,Stop 00603,R-0038,14,23.17531,72.735719
S-000604,Stop 00604,R-0038,15,23.167984,72.729973
S-000605,Stop 00605,R-0038,16,23.172086,72.718189
S-000606,Stop 00606,R-0038,17,23.167733,72.711466
S-000607,Stop 00607,R-0038,18,23.168383,72.697695
S-000608,Stop 00608,R-0038,19,23.163138,72.688065
S-000609,Stop 00609,R-0038,20,23.170807,72.688125
S-000610,Stop 00610,R-0038,21,23.162447,72.672757
S-000611,Stop 00611,R-0038,22,23.166054,72.668229
S-000612,Stop 00612,R-0038,23,23.165984,72.658135
S-000613,Stop 00613,R-0038,24,23.161883,72.647186
S-000614,Stop 00614,R-0039,1,23.079082,72.890755
S-000615,Stop 00615,R-0039,2,23.083754,72.866444
S-000616,Stop 00616,R-0039,3,23.086404,72.83702
S-000617,Stop 00617,R-0039,4,23.088639,72.81335
S-000618,Stop 00618,R-0039,5,23.083323,72.785039
S-000619,Stop 00619,R-0039,6,23.09005,72.751616
S-000620,Stop 00620,R-0039,7,23.093472,72.727224
S-000621,Stop 00621,R-0039,8,23.092678,72.701219
S-000622,Stop 00622,R-0039,9,23.087424,72.667297
S-000623,Stop 00623,R-0039,10,23.094472,72.640732
S-000624,Stop 00624,R-0039,11,23.096431,72.617776
S-000625,Stop 00625,R-0039,12,23.088767,72.59015
S-000626,Stop 00626,R-0039,13,23.0921,72.554734
S-000627,Stop 00627,R-0039,14,23.09741,72.531879
S-000628,Stop 00628,R-0039,15,23.091964,72.502681
S-000629,Stop 00629,R-0040,1,23.177233,72.55731
S-000630,Stop 00630,R-0040,2,23.164623,72.549683
S-000631,Stop 00631,R-0040,3,23.156962,72.556447
S-000632,Stop 00632,R-0040,4,23.142245,72.548052
S-000633,Stop 00633,R-0040,5,23.129187,72.546319
S-000634,Stop 00634,R-0040,6,23.116641,72.545811
S-000635,Stop 00635,R-0040,7,23.094789,72.548722
S-000636,Stop 00636,R-0040,8,23.089806,72.546266
S-000637,Stop 00637,R-0040,9,23.076482,72.544224
S-000638,Stop 00638,R-0040,10,23.061185,72.550405
S-000639,Stop 00639,R-0040,11,23.045986,72.544904
S-000640,Stop 00640,R-0040,12,23.028187,72.551212
S-000641,Stop 00641,R-0040,13,23.015178,72.549708
S-000642,Stop 00642,R-0040,14,23.003969,72.542036
S-000643,Stop 00643,R-0040,15,22.991262,72.540763
S-000644,Stop 00644,R-0040,16,22.973036,72.544789
S-000645,Stop 00645,R-0040,17,22.957538,72.543035
S-000646,Stop 00646,R-0040,18,22.952124,72.54708
S-000647,Stop 00647,R-0040,19,22.937364,72.540921
S-000648,Stop 00648,R-0041,1,23.115815,72.576519
S-000649,Stop 00649,R-0041,2,23.109511,72.584761
S-000650,Stop 00650,R-0041,3,23.107765,72.588034
S-000651,Stop 00651,R-0041,4,23.106586,72.590408
S-000652,Stop 00652,R-0041,5,23.104101,72.594901
S-000653,Stop 00653,R-0041,6,23.098342,72.598863
S-000654,Stop 00654,R-0041,7,23.101213,72.594994
S-000655,Stop 00655,R-0041,8,23.090893,72.599327
S-000656,Stop 00656,R-0041,9,23.09038,72.601374
S-000657,Stop 00657,R-0041,10,23.093667,72.609366
S-000658,Stop 00658,R-0042,1,22.922705,72.671003
S-000659,Stop 00659,R-0042,2,22.934434,72.661819
S-000660,Stop 00660,R-0042,3,22.930237,72.649962
S-000661,Stop 00661,R-0042,4,22.934833,72.639701
S-000662,Stop 00662,R-0042,5,22.936304,72.634867
S-000663,Stop 00663,R-0042,6,22.946075,72.615945
S-000664,Stop 00664,R-0042,7,22.951425,72.614105
S-000665,Stop 00665,R-0042,8,22.950664,72.602257
S-000666,Stop 00666,R-0042,9,22.952445,72.595111
S-000667,Stop 00667,R-0042,10,22.952823,72.576438
S-000668,Stop 00668,R-0042,11,22.956563,72.573799
S-000669,Stop 00669,R-0042,12,22.95923,72.561395
S-000670,Stop 00670,R-0042,13,22.966085,72.555475
S-000671,Stop 00671,R-0042,14,22.967357,72.53856
S-000672,Stop 00672,R-0042,15,22.971393,72.534075
S-000673,Stop 00673,R-0042,16,22.978504,72.523538
S-000674,Stop 00674,R-0042,17,22.977931,72.509021
S-000675,Stop 00675,R-0042,18,22.978751,72.498445
S-000676,Stop 00676,R-0043,1,23.118923,72.717316
S-000677,Stop 00677,R-0043,2,23.112623,72.698057
S-000678,Stop 00678,R-0043,3,23.103916,72.681958
S-000679,Stop 00679,R-0043,4,23.091226,72.653714
S-000680,Stop 00680,R-0043,5,23.082394,72.63015
S-000681,Stop 00681,R-0043,6,23.071914,72.614131
S-000682,Stop 00682,R-0043,7,23.069195,72.592558
S-000683,Stop 00683,R-0043,8,23.051928,72.572268
S-000684,Stop 00684,R-0043,9,23.045397,72.543141
S-000685,Stop 00685,R-0043,10,23.035194,72.524106
S-000686,Stop 00686,R-0043,11,23.028441,72.50564
S-000687,Stop 00687,R-0044,1,23.066878,72.830577
S-000688,Stop 00688,R-0044,2,23.068936,72.819077
S-000689,Stop 00689,R-0044,3,23.065713,72.797726
S-000690,Stop 00690,R-0044,4,23.061839,72.774937
S-000691,Stop 00691,R-0044,5,23.069569,72.756826
S-000692,Stop 00692,R-0044,6,23.062986,72.745114
S-000693,Stop 00693,R-0044,7,23.06533,72.720979
S-000694,Stop 00694,R-0044,8,23.067852,72.707554
S-000695,Stop 00695,R-0044,9,23.07396,72.683225
S-000696,Stop 00696,R-0044,10,23.071184,72.673252
S-000697,Stop 00697,R-0044,11,23.066811,72.655743
S-000698,Stop 00698,R-0044,12,23.068777,72.633925
S-000699,Stop 00699,R-0044,13,23.075631,72.610078
S-000700,Stop 00700,R-0044,14,23.076749,72.59894
S-000701,Stop 00701,R-0044,15,23.07024,72.581967
S-000702,Stop 00702,R-0044,16,23.070259,72.563479
S-000703,Stop 00703,R-0045,1,23.142054,72.843231
S-000704,Stop 00704,R-0045,2,23.135674,72.833101
S-000705,Stop 00705,R-0045,3,23.138649,72.815403
S-000706,Stop 00706,R-0045,4,23.140335,72.803042
S-000707,Stop 00707,R-0045,5,23.148839,72.787577
S-000708,Stop 00708,R-0045,6,23.147739,72.776676
S-000709,Stop 00709,R-0045,7,23.14604,72.765326
S-000710,Stop 00710,R-0045,8,23.150138,72.748803
S-000711,Stop 00711,R-0045,9,23.148971,72.736553
S-000712,Stop 00712,R-0045,10,23.14971,72.731015
S-000713,Stop 00713,R-0045,11,23.154515,72.715464
S-000714,Stop 00714,R-0045,12,23.158821,72.704092
S-000715,Stop 00715,R-0045,13,23.162235,72.69095
S-000716,Stop 00716,R-0045,14,23.157474,72.675564
S-000717,Stop 00717,R-0045,15,23.160272,72.666233
S-000718,Stop 00718,R-0045,16,23.161991,72.647977
S-000719,Stop 00719,R-0045,17,23.160307,72.63427
S-000720,Stop 00720,R-0045,18,23.162241,72.627026
S-000721,Stop 00721,R-0045,19,23.169378,72.605642
S-000722,Stop 00722,R-0045,20,23.17305,72.597338
S-000723,Stop 00723,R-0045,21,23.172345,72.589027
S-000724,Stop 00724,R-0046,1,23.161241,72.66412
S-000725,Stop 00725,R-0046,2,23.156318,72.65732
S-000726,Stop 00726,R-0046,3,23.156239,72.641322
S-000727,Stop 00727,R-0046,4,23.150443,72.634563
S-000728,Stop 00728,R-0046,5,23.142358,72.631948
S-000729,Stop 00729,R-0046,6,23.130854,72.623972
S-000730,Stop 00730,R-0046,7,23.129171,72.608947
S-000731,Stop 00731,R-0046,8,23.120057,72.606854
S-000732,Stop 00732,R-0046,9,23.114522,72.599537
S-000733,Stop 00733,R-0046,10,23.101241,72.589009
S-000734,Stop 00734,R-0046,11,23.103847,72.579245
S-000735,Stop 00735,R-0046,12,23.093416,72.567098
S-000736,Stop 00736,R-0046,13,23.091078,72.565637
S-000737,Stop 00737,R-0047,1,23.143653,72.849322
S-000738,Stop 00738,R-0047,2,23.127894,72.845494
S-000739,Stop 00739,R-0047,3,23.122813,72.842498
S-000740,Stop 00740,R-0047,4,23.110858,72.842982
S-000741,Stop 00741,R-0047,5,23.101501,72.845096
S-000742,Stop 00742,R-0047,6,23.08805,72.836172
S-000743,Stop 00743,R-0047,7,23.081948,72.840446
S-000744,Stop 00744,R-0047,8,23.063802,72.830608
S-000745,Stop 00745,R-0047,9,23.059535,72.827913
S-000746,Stop 00746,R-0047,10,23.042879,72.829126
S-000747,Stop 00747,R-0047,11,23.034701,72.821955
S-000748,Stop 00748,R-0047,12,23.027379,72.825217
S-000749,Stop 00749,R-0047,13,23.015476,72.819328
S-000750,Stop 00750,R-0047,14,23.002124,72.823087
S-000751,Stop 00751,R-0047,15,22.995504,72.815064
S-000752,Stop 00752,R-0047,16,22.983855,72.812933
S-000753,Stop 00753,R-0047,17,22.969917,72.8125
S-000754,Stop 00754,R-0047,18,22.961646,72.81169
S-000755,Stop 00755,R-0047,19,22.951445,72.803729
S-000756,Stop 00756,R-0047,20,22.941245,72.805671
S-000757,Stop 00757,R-0047,21,22.927656,72.802233
S-000758,Stop 00758,R-0047,22,22.916099,72.794037
S-000759,Stop 00759,R-0047,23,22.902454,72.796646
S-000760,Stop 00760,R-0048,1,23.162727,72.827008
S-000761,Stop 00761,R-0048,2,23.150463,72.820629
S-000762,Stop 00762,R-0048,3,23.13854,72.826404
S-000763,Stop 00763,R-0048,4,23.132042,72.82422
S-000764,Stop 00764,R-0048,5,23.117539,72.822293
S-000765,Stop 00765,R-0048,6,23.110379,72.817618
S-000766,Stop 00766,R-0048,7,23.101105,72.819543
S-000767,Stop 00767,R-0048,8,23.094568,72.825486
S-000768,Stop 00768,R-0048,9,23.086993,72.822063
S-000769,Stop 00769,R-0048,10,23.076639,72.818229
S-000770,Stop 00770,R-0048,11,23.060029,72.816476
S-000771,Stop 00771,R-0048,12,23.057417,72.817392
S-000772,Stop 00772,R-0048,13,23.048925,72.820599
S-000773,Stop 00773,R-0048,14,23.032106,72.817285
S-000774,Stop 00774,R-0048,15,23.02639,72.814074
S-000775,Stop 00775,R-0048,16,23.016904,72.820736
S-000776,Stop 00776,R-0048,17,23.006845,72.81518
S-000777,Stop 00777,R-0048,18,23.002191,72.818822
S-000778,Stop 00778,R-0048,19,22.990253,72.818025
S-000779,Stop 00779,R-0048,20,22.977298,72.814463
S-000780,Stop 00780,R-0049,1,22.964679,72.824822
S-000781,Stop 00781,R-0049,2,22.980167,72.796807
S-000782,Stop 00782,R-0049,3,22.981271,72.77425
S-000783,Stop 00783,R-0049,4,22.99581,72.750396
S-000784,Stop 00784,R-0049,5,23.006392,72.720287
S-000785,Stop 00785,R-0049,6,23.012271,72.699922
S-000786,Stop 00786,R-0049,7,23.020078,72.668526
S-000787,Stop 00787,R-0049,8,23.033595,72.644296
S-000788,Stop 00788,R-0049,9,23.041989,72.618647
S-000789,Stop 00789,R-0050,1,22.95625,72.636049
S-000790,Stop 00790,R-0050,2,22.977168,72.657391
S-000791,Stop 00791,R-0050,3,23.002468,72.682796
S-000792,Stop 00792,R-0050,4,23.019955,72.705914
S-000793,Stop 00793,R-0050,5,23.034445,72.732414
S-000794,Stop 00794,R-0050,6,23.059119,72.75894
S-000795,Stop 00795,R-0050,7,23.074304,72.779614
S-000796,Stop 00796,R-0050,8,23.094772,72.81336
S-000797,Stop 00797,R-0050,9,23.120284,72.835469
S-000798,Stop 00798,R-0050,10,23.135139,72.85828
S-000799,Stop 00799,R-0050,11,23.160688,72.891527
S-000800,Stop 00800,R-0051,1,23.197783,72.71257
S-000801,Stop 00801,R-0051,2,23.192748,72.706725
S-000802,Stop 00802,R-0051,3,23.194812,72.695093
S-000803,Stop 00803,R-0051,4,23.193072,72.688378
S-000804,Stop 00804,R-0051,5,23.195914,72.682571
S-000805,Stop 00805,R-0051,6,23.190945,72.673858
S-000806,Stop 00806,R-0051,7,23.190566,72.665835
S-000807,Stop 00807,R-0051,8,23.18803,72.656537
S-000808,Stop 00808,R-0051,9,23.192295,72.654943
S-000809,Stop 00809,R-0051,10,23.185058,72.644054
S-000810,Stop 00810,R-0051,11,23.189044,72.642671
S-000811,Stop 00811,R-0051,12,23.188955,72.630848
S-000812,Stop 00812,R-0051,13,23.190894,72.625843
S-000813,Stop 00813,R-0051,14,23.186101,72.615362
S-000814,Stop 00814,R-0051,15,23.190012,72.607103
S-000815,Stop 00815,R-0051,16,23.189588,72.599465
S-000816,Stop 00816,R-0051,17,23.18099,72.596078
S-000817,Stop 00817,R-0051,18,23.186772,72.584419
S-000818,Stop 00818,R-0051,19,23.188062,72.57975
S-000819,Stop 00819,R-0051,20,23.185261,72.570296
S-000820,Stop 00820,R-0051,21,23.179117,72.564013
S-000821,Stop 00821,R-0051,22,23.179071,72.558633
S-000822,Stop 00822,R-0051,23,23.186493,72.549222
S-000823,Stop 00823,R-0052,1,22.975067,72.539145
S-000824,Stop 00824,R-0052,2,22.986083,72.562931
S-000825,Stop 00825,R-0052,3,22.992089,72.584941
S-000826,Stop 00826,R-0052,4,22.994426,72.60921
S-000827,Stop 00827,R-0052,5,23.000358,72.636637
S-000828,Stop 00828,R-0052,6,22.998569,72.656678
S-000829,Stop 00829,R-0052,7,23.007831,72.682231
S-000830,Stop 00830,R-0052,8,23.012119,72.705387
S-000831,Stop 00831,R-0052,9,23.011657,72.72577
S-000832,Stop 00832,R-0052,10,23.022021,72.749134
S-000833,Stop 00833,R-0052,11,23.021882,72.765364
S-000834,Stop 00834,R-0052,12,23.031035,72.792245
S-000835,Stop 00835,R-0053,1,23.019808,72.731262
S-000836,Stop 00836,R-0053,2,23.007655,72.733784
S-000837,Stop 00837,R-0053,3,23.008087,72.739649
S-000838,Stop 00838,R-0053,4,23.002925,72.745329
S-000839,Stop 00839,R-0053,5,22.999758,72.752876
S-000840,Stop 00840,R-0053,6,22.991363,72.754829
S-000841,Stop 00841,R-0053,7,22.988512,72.763449
S-000842,Stop 00842,R-0053,8,22.990096,72.763038
S-000843,Stop 00843,R-0053,9,22.988141,72.771253
S-000844,Stop 00844,R-0053,10,22.977707,72.780684
S-000845,Stop 00845,R-0053,11,22.980625,72.787484
S-000846,Stop 00846,R-0054,1,23.114208,72.799717
S-000847,Stop 00847,R-0054,2,23.111847,72.778624
S-000848,Stop 00848,R-0054,3,23.115228,72.75546
S-000849,Stop 00849,R-0054,4,23.11428,72.729306
S-000850,Stop 00850,R-0054,5,23.105468,72.71288
S-000851,Stop 00851,R-0054,6,23.108112,72.687067
S-000852,Stop 00852,R-0054,7,23.105568,72.668323
S-000853,Stop 00853,R-0054,8,23.097082,72.645106
S-000854,Stop 00854,R-0055,1,22.996584,72.841801
S-000855,Stop 00855,R-0055,2,23.003934,72.831462
S-000856,Stop 00856,R-0055,3,23.006503,72.813888
S-000857,Stop 00857,R-0055,4,23.010549,72.806412
S-000858,Stop 00858,R-0055,5,23.014882,72.798904
S-000859,Stop 00859,R-0055,6,23.028406,72.779726
S-000860,Stop 00860,R-0055,7,23.027628,72.776812
S-000861,Stop 00861,R-0055,8,23.040158,72.760024
S-000862,Stop 00862,R-0055,9,23.04244,72.755756
S-000863,Stop 00863,R-0055,10,23.051009,72.738361
S-000864,Stop 00864,R-0055,11,23.058286,72.729719
S-000865,Stop 00865,R-0055,12,23.062492,72.714952
S-000866,Stop 00866,R-0055,13,23.062531,72.706484
S-000867,Stop 00867,R-0055,14,23.074254,72.693582
S-000868,Stop 00868,R-0055,15,23.083106,72.686721
S-000869,Stop 00869,R-0055,16,23.083986,72.671533
S-000870,Stop 00870,R-0055,17,23.095521,72.666434
S-000871,Stop 00871,R-0055,18,23.099552,72.650841
S-000872,Stop 00872,R-0055,19,23.102617,72.638666
S-000873,Stop 00873,R-0055,20,23.110561,72.635732
S-000874,Stop 00874,R-0055,21,23.119497,72.621603
S-000875,Stop 00875,R-0056,1,22.986388,72.55001
S-000876,Stop 00876,R-0056,2,22.986777,72.578736
S-000877,Stop 00877,R-0056,3,22.997132,72.596039
S-000878,Stop 00878,R-0056,4,23.001451,72.627442
S-000879,Stop 00879,R-0056,5,23.001227,72.64607
S-000880,Stop 00880,R-0056,6,23.00062,72.679054
S-000881,Stop 00881,R-0056,7,23.00403,72.705691
S-000882,Stop 00882,R-0056,8,23.010283,72.725277
S-000883,Stop 00883,R-0056,9,23.0105,72.749544
S-000884,Stop 00884,R-0056,10,23.012135,72.775741
S-000885,Stop 00885,R-0056,11,23.019267,72.804335
S-000886,Stop 00886,R-0056,12,23.019346,72.822133
S-000887,Stop 00887,R-0056,13,23.023369,72.852751
S-000888,Stop 00888,R-0056,14,23.029567,72.874887
S-000889,Stop 00889,R-0057,1,22.98827,72.715256
S-000890,Stop 00890,R-0057,2,22.980288,72.717533
S-000891,Stop 00891,R-0057,3,22.980421,72.709739
S-000892,Stop 00892,R-0057,4,22.970991,72.701709
S-000893,Stop 00893,R-0057,5,22.971668,72.69106
S-000894,Stop 00894,R-0057,6,22.958608,72.689202
S-000895,Stop 00895,R-0057,7,22.960471,72.683076
S-000896,Stop 00896,R-0057,8,22.953862,72.674496
S-000897,Stop 00897,R-0057,9,22.946809,72.668778
S-000898,Stop 00898,R-0057,10,22.941781,72.661998
S-000899,Stop 00899,R-0057,11,22.938908,72.651513
S-000900,Stop 00900,R-0057,12,22.927484,72.646276
S-000901,Stop 00901,R-0057,13,22.918016,72.642948
S-000902,Stop 00902,R-0057,14,22.917748,72.631241
S-000903,Stop 00903,R-0057,15,22.913658,72.62504
S-000904,Stop 00904,R-0057,16,22.906104,72.62414
S-000905,Stop 00905,R-0057,17,22.904187,72.616484
S-000906,Stop 00906,R-0058,1,23.037498,72.673564
S-000907,Stop 00907,R-0058,2,23.037794,72.677986
S-000908,Stop 00908,R-0058,3,23.030879,72.677651
S-000909,Stop 00909,R-0058,4,23.032072,72.680735
S-000910,Stop 00910,R-0058,5,23.026976,72.683149
S-000911,Stop 00911,R-0058,6,23.027577,72.683558
S-000912,Stop 00912,R-0058,7,23.021374,72.677324
S-000913,Stop 00913,R-0058,8,23.013786,72.684355
S-000914,Stop 00914,R-0058,9,23.01248,72.685049
S-000915,Stop 00915,R-0058,10,23.008714,72.682576
S-000916,Stop 00916,R-0058,11,23.006357,72.678437
S-000917,Stop 00917,R-0058,12,22.998979,72.684143
S-000918,Stop 00918,R-0058,13,23.000967,72.684545
S-000919,Stop 00919,R-0058,14,22.996609,72.680824
S-000920,Stop 00920,R-0058,15,22.989807,72.686225
S-000921,Stop 00921,R-0058,16,22.99063,72.684089
S-000922,Stop 00922,R-0058,17,22.990762,72.682005
S-000923,Stop 00923,R-0058,18,22.988699,72.684463
S-000924,Stop 00924,R-0058,19,22.98537,72.690505
S-000925,Stop 00925,R-0058,20,22.982087,72.683548
S-000926,Stop 00926,R-0058,21,22.977567,72.684459
S-000927,Stop 00927,R-0058,22,22.966473,72.686521
S-000928,Stop 00928,R-0058,23,22.972254,72.686869
S-000929,Stop 00929,R-0058,24,22.95969,72.688795
S-000930,Stop 00930,R-0059,1,22.928051,72.702867
S-000931,Stop 00931,R-0059,2,22.940733,72.70053
S-000932,Stop 00932,R-0059,3,22.953374,72.690968
S-000933,Stop 00933,R-0059,4,22.964532,72.690876
S-000934,Stop 00934,R-0059,5,22.975071,72.688648
S-000935,Stop 00935,R-0059,6,22.987519,72.673825
S-000936,Stop 00936,R-0059,7,22.99833,72.671632
S-000937,Stop 00937,R-0059,8,23.009126,72.665577
S-000938,Stop 00938,R-0059,9,23.029967,72.658714
S-000939,Stop 00939,R-0059,10,23.041052,72.657528
S-000940,Stop 00940,R-0059,11,23.049422,72.65265
S-000941,Stop 00941,R-0059,12,23.063027,72.641458
S-000942,Stop 00942,R-0059,13,23.076068,72.640508
S-000943,Stop 00943,R-0059,14,23.086552,72.637313
S-000944,Stop 00944,R-0060,1,22.971877,72.579211
S-000945,Stop 00945,R-0060,2,22.963841,72.581036
S-000946,Stop 00946,R-0060,3,22.959221,72.583805
S-000947,Stop 00947,R-0060,4,22.952468,72.588042
S-000948,Stop 00948,R-0060,5,22.952278,72.586724
S-000949,Stop 00949,R-0060,6,22.945271,72.589435
S-000950,Stop 00950,R-0060,7,22.947988,72.5817
S-000951,Stop 00951,R-0060,8,22.938357,72.5925
S-000952,Stop 00952,R-0060,9,22.934472,72.584014
S-000953,Stop 00953,R-0060,10,22.933652,72.586169
S-000954,Stop 00954,R-0060,11,22.931963,72.594001
S-000955,Stop 00955,R-0060,12,22.92485,72.593626
S-000956,Stop 00956,R-0060,13,22.925056,72.594597
S-000957,Stop 00957,R-0060,14,22.919529,72.589988
S-000958,Stop 00958,R-0060,15,22.910917,72.599013
S-000959,Stop 00959,R-0060,16,22.906564,72.592952
S-000960,Stop 00960,R-0060,17,22.906771,72.594173
S-000961,Stop 00961,R-0061,1,23.024076,72.748437
S-000962,Stop 00962,R-0061,2,23.021884,72.754985
S-000963,Stop 00963,R-0061,3,23.013543,72.757074
S-000964,Stop 00964,R-0061,4,23.012757,72.754933
S-000965,Stop 00965,R-0061,5,23.007788,72.755381
S-000966,Stop 00966,R-0061,6,23.005638,72.756834
S-000967,Stop 00967,R-0061,7,23.000119,72.758738
S-000968,Stop 00968,R-0061,8,22.989672,72.760399
S-000969,Stop 00969,R-0061,9,22.986118,72.763109
S-000970,Stop 00970,R-0061,10,22.982361,72.768119
S-000971,Stop 00971,R-0061,11,22.977348,72.771698
S-000972,Stop 00972,R-0061,12,22.973885,72.766833
S-000973,Stop 00973,R-0061,13,22.971495,72.770292
S-000974,Stop 00974,R-0061,14,22.971462,72.773297
S-000975,Stop 00975,R-0061,15,22.957758,72.778483
S-000976,Stop 00976,R-0061,16,22.9624,72.781894
S-000977,Stop 00977,R-0062,1,22.898154,72.796287
S-000978,Stop 00978,R-0062,2,22.912205,72.790906
S-000979,Stop 00979,R-0062,3,22.918526,72.774513
S-000980,Stop 00980,R-0062,4,22.93025,72.770125
S-000981,Stop 00981,R-0062,5,22.941323,72.753165
S-000982,Stop 00982,R-0062,6,22.949786,72.738553
S-000983,Stop 00983,R-0062,7,22.959608,72.727996
S-000984,Stop 00984,R-0062,8,22.977654,72.716501
S-000985,Stop 00985,R-0062,9,22.987449,72.702608
S-000986,Stop 00986,R-0062,10,22.99807,72.690401
S-000987,Stop 00987,R-0062,11,23.009433,72.68486
S-000988,Stop 00988,R-0062,12,23.013044,72.670086
S-000989,Stop 00989,R-0062,13,23.026141,72.661013
S-000990,Stop 00990,R-0062,14,23.040973,72.644008
S-000991,Stop 00991,R-0062,15,23.050763,72.633191
S-000992,Stop 00992,R-0062,16,23.057046,72.62927
S-000993,Stop 00993,R-0062,17,23.066182,72.611788
S-000994,Stop 00994,R-0062,18,23.082395,72.604214
S-000995,Stop 00995,R-0062,19,23.090802,72.592468
S-000996,Stop 00996,R-0062,20,23.095869,72.579745
S-000997,Stop 00997,R-0062,21,23.10575,72.570492
S-000998,Stop 00998,R-0062,22,23.117183,72.553511
S-000999,Stop 00999,R-0062,23,23.131922,72.545658
S-001000,Stop 01000,R-0063,1,23.0522,72.518885
S-001001,Stop 01001,R-0063,2,23.050134,72.530577
S-001002,Stop 01002,R-0063,3,23.049553,72.553877
S-001003,Stop 01003,R-0063,4,23.048603,72.562
S-001004,Stop 01004,R-0063,5,23.044233,72.577026
S-001005,Stop 01005,R-0063,6,23.035303,72.591558
S-001006,Stop 01006,R-0063,7,23.029967,72.609443
S-001007,Stop 01007,R-0063,8,23.030557,72.628282
S-001008,Stop 01008,R-0063,9,23.027347,72.642472
S-001009,Stop 01009,R-0063,10,23.021482,72.661687
S-001010,Stop 01010,R-0063,11,23.018691,72.670493
S-001011,Stop 01011,R-0063,12,23.013384,72.689318
S-001012,Stop 01012,R-0063,13,23.005266,72.704132
S-001013,Stop 01013,R-0063,14,23.00296,72.716174
S-001014,Stop 01014,R-0063,15,23.003398,72.731768
S-001015,Stop 01015,R-0063,16,23.001186,72.748705
S-001016,Stop 01016,R-0063,17,22.998834,72.758869
S-001017,Stop 01017,R-0063,18,22.991551,72.775095
S-001018,Stop 01018,R-0063,19,22.989766,72.797247
S-001019,Stop 01019,R-0063,20,22.986132,72.804679
S-001020,Stop 01020,R-0063,21,22.978515,72.821542
S-001021,Stop 01021,R-0063,22,22.97946,72.834839
S-001022,Stop 01022,R-0064,1,23.196873,72.736967
S-001023,Stop 01023,R-0064,2,23.198728,72.742426
S-001024,Stop 01024,R-0064,3,23.194188,72.755824
S-001025,Stop 01025,R-0064,4,23.189815,72.763535
S-001026,Stop 01026,R-0064,5,23.191284,72.776813
S-001027,Stop 01027,R-0064,6,23.194765,72.77564
S-001028,Stop 01028,R-0064,7,23.190536,72.784277
S-001029,Stop 01029,R-0064,8,23.191181,72.800635
S-001030,Stop 01030,R-0064,9,23.192797,72.810464
S-001031,Stop 01031,R-0064,10,23.190443,72.818189
S-001032,Stop 01032,R-0064,11,23.18888,72.824291
S-001033,Stop 01033,R-0064,12,23.187008,72.829609
S-001034,Stop 01034,R-0064,13,23.189887,72.842823
S-001035,Stop 01035,R-0064,14,23.189266,72.846433
S-001036,Stop 01036,R-0064,15,23.187686,72.85757
S-001037,Stop 01037,R-0065,1,23.15133,72.715289
S-001038,Stop 01038,R-0065,2,23.152875,72.720717
S-001039,Stop 01039,R-0065,3,23.149806,72.731149
S-001040,Stop 01040,R-0065,4,23.157147,72.730121
S-001041,Stop 01041,R-0065,5,23.153833,72.738573
S-001042,Stop 01042,R-0065,6,23.150182,72.737544
S-001043,Stop 01043,R-0065,7,23.152239,72.747422
S-001044,Stop 01044,R-0065,8,23.159161,72.745674
S-001045,Stop 01045,R-0065,9,23.159164,72.75083
S-001046,Stop 01046,R-0065,10,23.163469,72.757234
S-001047,Stop 01047,R-0065,11,23.159848,72.76547
S-001048,Stop 01048,R-0065,12,23.163556,72.763085
S-001049,Stop 01049,R-0065,13,23.161643,72.775624
S-001050,Stop 01050,R-0065,14,23.166984,72.776596
S-001051,Stop 01051,R-0065,15,23.167441,72.779564
S-001052,Stop 01052,R-0065,16,23.167415,72.788972
S-001053,Stop 01053,R-0065,17,23.163287,72.788749
S-001054,Stop 01054,R-0065,18,23.168355,72.788597
S-001055,Stop 01055,R-0065,19,23.173515,72.80085
S-001056,Stop 01056,R-0066,1,23.095542,72.809136
S-001057,Stop 01057,R-0066,2,23.093813,72.805715
S-001058,Stop 01058,R-0066,3,23.084861,72.804421
S-001059,Stop 01059,R-0066,4,23.082573,72.800315
S-001060,Stop 01060,R-0066,5,23.086013,72.79443
S-001061,Stop 01061,R-0066,6,23.087178,72.792869
S-001062,Stop 01062,R-0066,7,23.082868,72.793079
S-001063,Stop 01063,R-0066,8,23.077673,72.787605
S-001064,Stop 01064,R-0066,9,23.077033,72.784039
S-001065,Stop 01065,R-0066,10,23.080065,72.779951
S-001066,Stop 01066,R-0066,11,23.076456,72.784905
S-001067,Stop 01067,R-0066,12,23.073967,72.781943
S-001068,Stop 01068,R-0066,13,23.072735,72.774123
S-001069,Stop 01069,R-0066,14,23.073039,72.773991
S-001070,Stop 01070,R-0066,15,23.066257,72.768024
S-001071,Stop 01071,R-0066,16,23.069641,72.770264
S-001072,Stop 01072,R-0066,17,23.070122,72.762196
S-001073,Stop 01073,R-0066,18,23.066428,72.768093
S-001074,Stop 01074,R-0066,19,23.059515,72.761238
S-001075,Stop 01075,R-0066,20,23.062519,72.760388
S-001076,Stop 01076,R-0066,21,23.062171,72.756379
S-001077,Stop 01077,R-0066,22,23.058805,72.757654
S-001078,Stop 01078,R-0066,23,23.058491,72.752441
S-001079,Stop 01079,R-0067,1,22.979374,72.631357
S-001080,Stop 01080,R-0067,2,22.987954,72.625089
S-001081,Stop 01081,R-0067,3,22.983479,72.618293
S-001082,Stop 01082,R-0067,4,22.993284,72.615816
S-001083,Stop 01083,R-0067,5,22.997439,72.612404
S-001084,Stop 01084,R-0067,6,22.996158,72.610278
S-001085,Stop 01085,R-0067,7,23.005042,72.611656
S-001086,Stop 01086,R-0067,8,23.002955,72.609264
S-001087,Stop 01087,R-0067,9,23.003682,72.606846
S-001088,Stop 01088,R-0067,10,23.007739,72.604364
S-001089,Stop 01089,R-0067,11,23.017465,72.60131
S-001090,Stop 01090,R-0067,12,23.020849,72.595252
S-001091,Stop 01091,R-0067,13,23.019156,72.59446
S-001092,Stop 01092,R-0067,14,23.028124,72.586471
S-001093,Stop 01093,R-0067,15,23.030136,72.589837
S-001094,Stop 01094,R-0067,16,23.030722,72.587117
S-001095,Stop 01095,R-0067,17,23.039961,72.577655
S-001096,Stop 01096,R-0067,18,23.039079,72.571635
S-001097,Stop 01097,R-0067,19,23.039427,72.574689
S-001098,Stop 01098,R-0067,20,23.048078,72.574162
S-001099,Stop 01099,R-0067,21,23.051924,72.571554
S-001100,Stop 01100,R-0067,22,23.054026,72.565893
S-001101,Stop 01101,R-0067,23,23.057886,72.561861
S-001102,Stop 01102,R-0067,24,23.059724,72.561134
S-001103,Stop 01103,R-0067,25,23.066689,72.553292
S-001104,Stop 01104,R-0068,1,22.924104,72.658785
S-001105,Stop 01105,R-0068,2,22.935853,72.665663
S-001106,Stop 01106,R-0068,3,22.939382,72.658991
S-001107,Stop 01107,R-0068,4,22.952939,72.6615
S-001108,Stop 01108,R-0068,5,22.963716,72.66759
S-001109,Stop 01109,R-0068,6,22.974123,72.664066
S-001110,Stop 01110,R-0068,7,22.995401,72.660074
S-001111,Stop 01111,R-0068,8,23.007272,72.665916
S-001112,Stop 01112,R-0068,9,23.017682,72.666474
S-001113,Stop 01113,R-0068,10,23.030336,72.663504
S-001114,Stop 01114,R-0068,11,23.041763,72.666267
S-001115,Stop 01115,R-0068,12,23.046552,72.668114
S-001116,Stop 01116,R-0068,13,23.063037,72.67088
S-001117,Stop 01117,R-0069,1,23.070906,72.77826
S-001118,Stop 01118,R-0069,2,23.07794,72.779798
S-001119,Stop 01119,R-0069,3,23.078256,72.777858
S-001120,Stop 01120,R-0069,4,23.083027,72.780184
S-001121,Stop 01121,R-0069,5,23.088057,72.780268
S-001122,Stop 01122,R-0069,6,23.095532,72.784607
S-001123,Stop 01123,R-0069,7,23.101528,72.788758
S-001124,Stop 01124,R-0069,8,23.10493,72.781828
S-001125,Stop 01125,R-0069,9,23.105364,72.787415
S-001126,Stop 01126,R-0069,10,23.111276,72.790314
S-001127,Stop 01127,R-0069,11,23.111999,72.794984
S-001128,Stop 01128,R-0069,12,23.116169,72.789824
S-001129,Stop 01129,R-0069,13,23.122059,72.797283
S-001130,Stop 01130,R-0069,14,23.120315,72.794454
S-001131,Stop 01131,R-0069,15,23.122841,72.799383
S-001132,Stop 01132,R-0069,16,23.13179,72.795238
S-001133,Stop 01133,R-0069,17,23.135154,72.797163
S-001134,Stop 01134,R-0069,18,23.13112,72.802909
S-001135,Stop 01135,R-0069,19,23.136163,72.800284
S-001136,Stop 01136,R-0069,20,23.147277,72.798037
S-001137,Stop 01137,R-0069,21,23.150914,72.802962
S-001138,Stop 01138,R-0069,22,23.144981,72.799455
S-001139,Stop 01139,R-0069,23,23.155167,72.807755
S-001140,Stop 01140,R-0069,24,23.16067,72.80548
S-001141,Stop 01141,R-0070,1,23.123099,72.844666
S-001142,Stop 01142,R-0070,2,23.135828,72.826416
S-001143,Stop 01143,R-0070,3,23.137393,72.809793
S-001144,Stop 01144,R-0070,4,23.13976,72.791108
S-001145,Stop 01145,R-0070,5,23.145275,72.77404
S-001146,Stop 01146,R-0070,6,23.151415,72.750226
S-001147,Stop 01147,R-0070,7,23.158815,72.734636
S-001148,Stop 01148,R-0070,8,23.163738,72.722956
S-001149,Stop 01149,R-0070,9,23.178142,72.701439
S-001150,Stop 01150,R-0070,10,23.179542,72.68403
S-001151,Stop 01151,R-0070,11,23.184193,72.666504
S-001152,Stop 01152,R-0071,1,22.96651,72.589183
S-001153,Stop 01153,R-0071,2,22.973804,72.582713
S-001154,Stop 01154,R-0071,3,22.979936,72.574546
S-001155,Stop 01155,R-0071,4,22.981265,72.569202
S-001156,Stop 01156,R-0071,5,22.988059,72.560174
S-001157,Stop 01157,R-0071,6,22.99647,72.545555
S-001158,Stop 01158,R-0071,7,23.007568,72.54145
S-001159,Stop 01159,R-0071,8,23.010325,72.536065
S-001160,Stop 01160,R-0071,9,23.017573,72.527176
S-001161,Stop 01161,R-0071,10,23.020656,72.518136
S-001162,Stop 01162,R-0071,11,23.033726,72.512067
S-001163,Stop 01163,R-0072,1,22.947494,72.690826
S-001164,Stop 01164,R-0072,2,22.953146,72.696259
S-001165,Stop 01165,R-0072,3,22.948951,72.702793
S-001166,Stop 01166,R-0072,4,22.941563,72.707598
S-001167,Stop 01167,R-0072,5,22.941845,72.7049
S-001168,Stop 01168,R-0072,6,22.945138,72.714055
S-001169,Stop 01169,R-0072,7,22.943866,72.716597
S-001170,Stop 01170,R-0072,8,22.93947,72.728791
S-001171,Stop 01171,R-0072,9,22.943609,72.729126
S-001172,Stop 01172,R-0072,10,22.944385,72.741154
S-001173,Stop 01173,R-0072,11,22.935733,72.740111
S-001174,Stop 01174,R-0072,12,22.939457,72.74643
S-001175,Stop 01175,R-0073,1,22.904945,72.760097
S-001176,Stop 01176,R-0073,2,22.914911,72.753372
S-001177,Stop 01177,R-0073,3,22.91897,72.747559
S-001178,Stop 01178,R-0073,4,22.917517,72.73587
S-001179,Stop 01179,R-0073,5,22.919069,72.723805
S-001180,Stop 01180,R-0073,6,22.920403,72.723145
S-001181,Stop 01181,R-0073,7,22.92755,72.711956
S-001182,Stop 01182,R-0073,8,22.927218,72.70796
S-001183,Stop 01183,R-0073,9,22.930195,72.700358
S-001184,Stop 01184,R-0073,10,22.941453,72.690099
S-001185,Stop 01185,R-0073,11,22.940216,72.685842
S-001186,Stop 01186,R-0074,1,22.999989,72.801016
S-001187,Stop 01187,R-0074,2,22.999703,72.807338
S-001188,Stop 01188,R-0074,3,23.004601,72.800717
S-001189,Stop 01189,R-0074,4,22.999127,72.806657
S-001190,Stop 01190,R-0074,5,23.004097,72.804978
S-001191,Stop 01191,R-0074,6,23.000722,72.801934
S-001192,Stop 01192,R-0074,7,23.005731,72.801425
S-001193,Stop 01193,R-0074,8,23.004715,72.802332
S-001194,Stop 01194,R-0074,9,23.008644,72.802518
S-001195,Stop 01195,R-0074,10,23.002965,72.803873
S-001196,Stop 01196,R-0074,11,23.003676,72.799993
S-001197,Stop 01197,R-0074,12,23.012101,72.805869
S-001198,Stop 01198,R-0074,13,23.006781,72.804061
S-001199,Stop 01199,R-0074,14,23.012063,72.80377
S-001200,Stop 01200,R-0074,15,23.015699,72.804761
S-001201,Stop 01201,R-0074,16,23.014074,72.804161
S-001202,Stop 01202,R-0074,17,23.014527,72.803496
S-001203,Stop 01203,R-0075,1,22.909878,72.716284
S-001204,Stop 01204,R-0075,2,22.928877,72.714926
S-001205,Stop 01205,R-0075,3,22.950791,72.706861
S-001206,Stop 01206,R-0075,4,22.972356,72.695512
S-001207,Stop 01207,R-0075,5,22.999046,72.694782
S-001208,Stop 01208,R-0075,6,23.016862,72.686267
S-001209,Stop 01209,R-0075,7,23.041684,72.679759
S-001210,Stop 01210,R-0075,8,23.064229,72.676588
S-001211,Stop 01211,R-0075,9,23.090315,72.672197
S-001212,Stop 01212,R-0075,10,23.110603,72.659961
S-001213,Stop 01213,R-0075,11,23.132231,72.656935
S-001214,Stop 01214,R-0075,12,23.151509,72.65613
S-001215,Stop 01215,R-0075,13,23.178939,72.650491
S-001216,Stop 01216,R-0075,14,23.202331,72.639819
S-001217,Stop 01217,R-0076,1,23.121674,72.88246
S-001218,Stop 01218,R-0076,2,23.11434,72.856839
S-001219,Stop 01219,R-0076,3,23.105114,72.840232
S-001220,Stop 01220,R-0076,4,23.098705,72.820811
S-001221,Stop 01221,R-0076,5,23.088159,72.801426
S-001222,Stop 01222,R-0076,6,23.083846,72.771996
S-001223,Stop 01223,R-0076,7,23.072268,72.75198
S-001224,Stop 01224,R-0076,8,23.066219,72.736633
S-001225,Stop 01225,R-0076,9,23.050022,72.717067
S-001226,Stop 01226,R-0076,10,23.043825,72.6947
S-001227,Stop 01227,R-0076,11,23.032558,72.672134
S-001228,Stop 01228,R-0076,12,23.02542,72.656682
S-001229,Stop 01229,R-0076,13,23.011074,72.629566
S-001230,Stop 01230,R-0076,14,23.010774,72.608629
S-001231,Stop 01231,R-0076,15,22.995858,72.593923
S-001232,Stop 01232,R-0076,16,22.986002,72.573027
S-001233,Stop 01233,R-0076,17,22.982175,72.544517
S-001234,Stop 01234,R-0076,18,22.972876,72.528201
S-001235,Stop 01235,R-0076,19,22.957108,72.508297
S-001236,Stop 01236,R-0077,1,23.066306,72.584055
S-001237,Stop 01237,R-0077,2,23.070523,72.603997
S-001238,Stop 01238,R-0077,3,23.070794,72.613766
S-001239,Stop 01239,R-0077,4,23.080432,72.633303
S-001240,Stop 01240,R-0077,5,23.079846,72.645527
S-001241,Stop 01241,R-0077,6,23.079847,72.656989
S-001242,Stop 01242,R-0077,7,23.088784,72.67024
S-001243,Stop 01243,R-0077,8,23.083592,72.690388
S-001244,Stop 01244,R-0077,9,23.087481,72.705587
S-001245,Stop 01245,R-0077,10,23.088972,72.719652
S-001246,Stop 01246,R-0077,11,23.091849,72.731151
S-001247,Stop 01247,R-0077,12,23.0958,72.752789
S-001248,Stop 01248,R-0077,13,23.102703,72.76348
S-001249,Stop 01249,R-0077,14,23.099605,72.779678
S-001250,Stop 01250,R-0077,15,23.108747,72.789955
S-001251,Stop 01251,R-0077,16,23.105696,72.806251
S-001252,Stop 01252,R-0078,1,22.938033,72.824426
S-001253,Stop 01253,R-0078,2,22.949257,72.815797
S-001254,Stop 01254,R-0078,3,22.960493,72.805063
S-001255,Stop 01255,R-0078,4,22.965959,72.790524
S-001256,Stop 01256,R-0078,5,22.978379,72.778238
S-001257,Stop 01257,R-0078,6,22.990754,72.7626
S-001258,Stop 01258,R-0078,7,23.004827,72.747432
S-001259,Stop 01259,R-0078,8,23.014369,72.733289
S-001260,Stop 01260,R-0078,9,23.024131,72.727868
S-001261,Stop 01261,R-0078,10,23.038745,72.710539
S-001262,Stop 01262,R-0078,11,23.04679,72.694373
S-001263,Stop 01263,R-0078,12,23.061647,72.686627
S-001264,Stop 01264,R-0078,13,23.068872,72.675387
S-001265,Stop 01265,R-0078,14,23.085108,72.655793
S-001266,Stop 01266,R-0078,15,23.096491,72.64299
S-001267,Stop 01267,R-0078,16,23.109297,72.637031
S-001268,Stop 01268,R-0078,17,23.123825,72.623573
S-001269,Stop 01269,R-0078,18,23.132941,72.608114
S-001270,Stop 01270,R-0078,19,23.141746,72.590397
S-001271,Stop 01271,R-0078,20,23.154934,72.579327
S-001272,Stop 01272,R-0078,21,23.169252,72.571996
S-001273,Stop 01273,R-0078,22,23.176635,72.55706
S-001274,Stop 01274,R-0078,23,23.19183,72.545854
S-001275,Stop 01275,R-0079,1,23.186707,72.656207
S-001276,Stop 01276,R-0079,2,23.182816,72.649937
S-001277,Stop 01277,R-0079,3,23.168701,72.633992
S-001278,Stop 01278,R-0079,4,23.166005,72.617761
S-001279,Stop 01279,R-0079,5,23.153327,72.609793
S-001280,Stop 01280,R-0079,6,23.146049,72.594756
S-001281,Stop 01281,R-0079,7,23.143881,72.580454
S-001282,Stop 01282,R-0079,8,23.133443,72.571921
S-001283,Stop 01283,R-0079,9,23.128182,72.552117
S-001284,Stop 01284,R-0079,10,23.12106,72.544079
S-001285,Stop 01285,R-0079,11,23.112117,72.53076
S-001286,Stop 01286,R-0080,1,23.132863,72.845035
S-001287,Stop 01287,R-0080,2,23.127851,72.820949
S-001288,Stop 01288,R-0080,3,23.126529,72.808282
S-001289,Stop 01289,R-0080,4,23.119928,72.792092
S-001290,Stop 01290,R-0080,5,23.12011,72.780181
S-001291,Stop 01291,R-0080,6,23.118181,72.761833
S-001292,Stop 01292,R-0080,7,23.113518,72.739266
S-001293,Stop 01293,R-0080,8,23.115307,72.722871
S-001294,Stop 01294,R-0080,9,23.106099,72.713306
S-001295,Stop 01295,R-0080,10,23.110426,72.690272
S-001296,Stop 01296,R-0080,11,23.103149,72.680925
S-001297,Stop 01297,R-0080,12,23.103206,72.662999
S-001298,Stop 01298,R-0080,13,23.099176,72.641174
S-001299,Stop 01299,R-0080,14,23.093353,72.630807
S-001300,Stop 01300,R-0080,15,23.094638,72.616476
S-001301,Stop 01301,R-0080,16,23.088443,72.59804
S-001302,Stop 01302,R-0080,17,23.08174,72.578463
S-001303,Stop 01303,R-0080,18,23.081699,72.565718
S-001304,Stop 01304,R-0080,19,23.082368,72.552729
S-001305,Stop 01305,R-0081,1,23.029653,72.648438
S-001306,Stop 01306,R-0081,2,23.031854,72.648585
S-001307,Stop 01307,R-0081,3,23.03542,72.650195
S-001308,Stop 01308,R-0081,4,23.033591,72.645765
S-001309,Stop 01309,R-0081,5,23.03043,72.647326
S-001310,Stop 01310,R-0081,6,23.037677,72.643
S-001311,Stop 01311,R-0081,7,23.031199,72.645517
S-001312,Stop 01312,R-0081,8,23.037246,72.641221
S-001313,Stop 01313,R-0081,9,23.035008,72.638647
S-001314,Stop 01314,R-0081,10,23.036931,72.637672
S-001315,Stop 01315,R-0081,11,23.037337,72.647019
S-001316,Stop 01316,R-0081,12,23.044785,72.639965
S-001317,Stop 01317,R-0081,13,23.042164,72.641677
S-001318,Stop 01318,R-0081,14,23.044615,72.642567
S-001319,Stop 01319,R-0081,15,23.041349,72.635482
S-001320,Stop 01320,R-0081,16,23.044733,72.64226
S-001321,Stop 01321,R-0081,17,23.052263,72.636826
S-001322,Stop 01322,R-0081,18,23.053971,72.635492
S-001323,Stop 01323,R-0081,19,23.051627,72.634055
S-001324,Stop 01324,R-0081,20,23.056085,72.637241
S-001325,Stop 01325,R-0082,1,23.184986,72.754296
S-001326,Stop 01326,R-0082,2,23.186181,72.756178
S-001327,Stop 01327,R-0082,3,23.181352,72.754229
S-001328,Stop 01328,R-0082,4,23.180444,72.757549
S-001329,Stop 01329,R-0082,5,23.178049,72.764818
S-001330,Stop 01330,R-0082,6,23.172529,72.763225
S-001331,Stop 01331,R-0082,7,23.171157,72.765546
S-001332,Stop 01332,R-0082,8,23.167178,72.766019
S-001333,Stop 01333,R-0082,9,23.169859,72.771351
S-001334,Stop 01334,R-0082,10,23.168427,72.775068
S-001335,Stop 01335,R-0082,11,23.16164,72.770938
S-001336,Stop 01336,R-0082,12,23.158005,72.778159
S-001337,Stop 01337,R-0082,13,23.153741,72.779197
S-001338,Stop 01338,R-0082,14,23.156897,72.778222
S-001339,Stop 01339,R-0082,15,23.149785,72.781367
S-001340,Stop 01340,R-0082,16,23.15062,72.780556
S-001341,Stop 01341,R-0083,1,22.976955,72.825017
S-001342,Stop 01342,R-0083,2,22.989262,72.810923
S-001343,Stop 01343,R-0083,3,22.995392,72.80681
S-001344,Stop 01344,R-0083,4,22.99464,72.80287
S-001345,Stop 01345,R-0083,5,22.998823,72.795281
S-001346,Stop 01346,R-0083,6,23.00799,72.786791
S-001347,Stop 01347,R-0083,7,23.011175,72.771571
S-001348,Stop 01348,R-0083,8,23.018566,72.770184
S-001349,Stop 01349,R-0083,9,23.018306,72.755367
S-001350,Stop 01350,R-0083,10,23.023762,72.751408
S-001351,Stop 01351,R-0083,11,23.027852,72.738171
S-001352,Stop 01352,R-0083,12,23.04052,72.735745
S-001353,Stop 01353,R-0083,13,23.042979,72.727008
S-001354,Stop 01354,R-0083,14,23.049014,72.718166
S-001355,Stop 01355,R-0083,15,23.046821,72.709457
S-001356,Stop 01356,R-0083,16,23.057632,72.70144
S-001357,Stop 01357,R-0083,17,23.066306,72.697369
S-001358,Stop 01358,R-0084,1,23.155422,72.837136
S-001359,Stop 01359,R-0084,2,23.144373,72.831452
S-001360,Stop 01360,R-0084,3,23.122133,72.835773
S-001361,Stop 01361,R-0084,4,23.105152,72.839357
S-001362,Stop 01362,R-0084,5,23.094093,72.838129
S-001363,Stop 01363,R-0084,6,23.079034,72.838016
S-001364,Stop 01364,R-0084,7,23.065571,72.837184
S-001365,Stop 01365,R-0084,8,23.053172,72.843776
S-001366,Stop 01366,R-0084,9,23.032707,72.845043
S-001367,Stop 01367,R-0084,10,23.012923,72.841616
S-001368,Stop 01368,R-0084,11,23.003314,72.84412
S-001369,Stop 01369,R-0084,12,22.988331,72.84482
S-001370,Stop 01370,R-0084,13,22.972388,72.845951
S-001371,Stop 01371,R-0084,14,22.956314,72.851068
S-001372,Stop 01372,R-0084,15,22.939959,72.851282
S-001373,Stop 01373,R-0084,16,22.923104,72.854659
S-001374,Stop 01374,R-0085,1,23.012348,72.510486
S-001375,Stop 01375,R-0085,2,23.02107,72.515597
S-001376,Stop 01376,R-0085,3,23.034222,72.520146
S-001377,Stop 01377,R-0085,4,23.040437,72.523897
S-001378,Stop 01378,R-0085,5,23.048202,72.525646
S-001379,Stop 01379,R-0085,6,23.05659,72.525456
S-001380,Stop 01380,R-0085,7,23.063894,72.534284
S-001381,Stop 01381,R-0085,8,23.068489,72.530399
S-001382,Stop 01382,R-0085,9,23.075841,72.53505
S-001383,Stop 01383,R-0085,10,23.088424,72.543415
S-001384,Stop 01384,R-0085,11,23.092697,72.543668
S-001385,Stop 01385,R-0085,12,23.10009,72.546424
S-001386,Stop 01386,R-0085,13,23.111675,72.547794
S-001387,Stop 01387,R-0085,14,23.111945,72.552354
S-001388,Stop 01388,R-0085,15,23.120976,72.556666
S-001389,Stop 01389,R-0085,16,23.135078,72.55849
S-001390,Stop 01390,R-0085,17,23.142,72.563527
S-001391,Stop 01391,R-0085,18,23.146023,72.569908
S-001392,Stop 01392,R-0085,19,23.158386,72.571177
S-001393,Stop 01393,R-0086,1,23.160308,72.784148
S-001394,Stop 01394,R-0086,2,23.159666,72.763643
S-001395,Stop 01395,R-0086,3,23.146733,72.754324
S-001396,Stop 01396,R-0086,4,23.133659,72.741815
S-001397,Stop 01397,R-0086,5,23.126404,72.726923
S-001398,Stop 01398,R-0086,6,23.118667,72.713736
S-001399,Stop 01399,R-0086,7,23.113628,72.696361
S-001400,Stop 01400,R-0086,8,23.098536,72.685046
S-001401,Stop 01401,R-0086,9,23.088058,72.666584
S-001402,Stop 01402,R-0086,10,23.085626,72.654462
S-001403,Stop 01403,R-0086,11,23.074801,72.642983
S-001404,Stop 01404,R-0086,12,23.067917,72.62416
S-001405,Stop 01405,R-0086,13,23.051987,72.611908
S-001406,Stop 01406,R-0086,14,23.044475,72.598718
S-001407,Stop 01407,R-0086,15,23.03492,72.588431
S-001408,Stop 01408,R-0086,16,23.025897,72.572612
S-001409,Stop 01409,R-0086,17,23.022752,72.557974
S-001410,Stop 01410,R-0086,18,23.010932,72.550177
S-001411,Stop 01411,R-0086,19,23.000142,72.52854
S-001412,Stop 01412,R-0086,20,22.987173,72.520158
S-001413,Stop 01413,R-0086,21,22.984501,72.508464
S-001414,Stop 01414,R-0087,1,23.043679,72.802236
S-001415,Stop 01415,R-0087,2,23.049263,72.802644
S-001416,Stop 01416,R-0087,3,23.059774,72.788825
S-001417,Stop 01417,R-0087,4,23.069486,72.788537
S-001418,Stop 01418,R-0087,5,23.078471,72.779348
S-001419,Stop 01419,R-0087,6,23.081426,72.774162
S-001420,Stop 01420,R-0087,7,23.091296,72.772228
S-001421,Stop 01421,R-0087,8,23.091008,72.770716
S-001422,Stop 01422,R-0087,9,23.09988,72.759615
S-001423,Stop 01423,R-0087,10,23.10745,72.755067
S-001424,Stop 01424,R-0088,1,22.968114,72.780319
S-001425,Stop 01425,R-0088,2,22.967904,72.770965
S-001426,Stop 01426,R-0088,3,22.977575,72.766098
S-001427,Stop 01427,R-0088,4,22.973722,72.759629
S-001428,Stop 01428,R-0088,5,22.983866,72.756645
S-001429,Stop 01429,R-0088,6,22.979114,72.750133
S-001430,Stop 01430,R-0088,7,22.986827,72.745004
S-001431,Stop 01431,R-0088,8,22.989329,72.738368
S-001432,Stop 01432,R-0088,9,22.993257,72.730719
S-001433,Stop 01433,R-0089,1,23.123598,72.629588
S-001434,Stop 01434,R-0089,2,23.118958,72.629065
S-001435,Stop 01435,R-0089,3,23.121467,72.626213
S-001436,Stop 01436,R-0089,4,23.116732,72.628558
S-001437,Stop 01437,R-0089,5,23.123492,72.623358
S-001438,Stop 01438,R-0089,6,23.118058,72.626015
S-001439,Stop 01439,R-0089,7,23.12135,72.624253
S-001440,Stop 01440,R-0089,8,23.121309,72.620999
S-001441,Stop 01441,R-0089,9,23.120695,72.624652
S-001442,Stop 01442,R-0089,10,23.118289,72.62331
S-001443,Stop 01443,R-0089,11,23.117083,72.615897
S-001444,Stop 01444,R-0089,12,23.119704,72.617052
S-001445,Stop 01445,R-0089,13,23.112663,72.6185
S-001446,Stop 01446,R-0089,14,23.115906,72.618304
S-001447,Stop 01447,R-0089,15,23.110934,72.609481
S-001448,Stop 01448,R-0089,16,23.114263,72.612525
S-001449,Stop 01449,R-0089,17,23.115292,72.61216
S-001450,Stop 01450,R-0089,18,23.113513,72.607416
S-001451,Stop 01451,R-0089,19,23.112341,72.608686
S-001452,Stop 01452,R-0090,1,22.934995,72.717881
S-001453,Stop 01453,R-0090,2,22.945543,72.70289
S-001454,Stop 01454,R-0090,3,22.96294,72.696818
S-001455,Stop 01455,R-0090,4,22.972146,72.687516
S-001456,Stop 01456,R-0090,5,22.984155,72.67213
S-001457,Stop 01457,R-0090,6,22.995626,72.667934
S-001458,Stop 01458,R-0090,7,23.009842,72.654254
S-001459,Stop 01459,R-0090,8,23.023527,72.651031
S-001460,Stop 01460,R-0090,9,23.040959,72.636855
S-001461,Stop 01461,R-0090,10,23.048047,72.63011
S-001462,Stop 01462,R-0090,11,23.062812,72.618938
S-001463,Stop 01463,R-0090,12,23.080241,72.616449
S-001464,Stop 01464,R-0090,13,23.089736,72.605031
S-001465,Stop 01465,R-0090,14,23.101254,72.5962
S-001466,Stop 01466,R-0090,15,23.120321,72.578973
S-001467,Stop 01467,R-0090,16,23.131414,72.569774
S-001468,Stop 01468,R-0091,1,23.189798,72.713812
S-001469,Stop 01469,R-0091,2,23.181025,72.70096
S-001470,Stop 01470,R-0091,3,23.169192,72.699179
S-001471,Stop 01471,R-0091,4,23.166754,72.68557
S-001472,Stop 01472,R-0091,5,23.159899,72.676482
S-001473,Stop 01473,R-0091,6,23.150636,72.668291
S-001474,Stop 01474,R-0091,7,23.138586,72.659528
S-001475,Stop 01475,R-0091,8,23.128434,72.652962
S-001476,Stop 01476,R-0091,9,23.116207,72.652778
S-001477,Stop 01477,R-0091,10,23.11222,72.637041
S-001478,Stop 01478,R-0091,11,23.100682,72.635191
S-001479,Stop 01479,R-0091,12,23.089437,72.621254
S-001480,Stop 01480,R-0091,13,23.079295,72.615309
S-001481,Stop 01481,R-0091,14,23.068629,72.605131
S-001482,Stop 01482,R-0091,15,23.062233,72.606632
S-001483,Stop 01483,R-0091,16,23.048468,72.59353
S-001484,Stop 01484,R-0091,17,23.0368,72.589421
S-001485,Stop 01485,R-0091,18,23.033038,72.577724
S-001486,Stop 01486,R-0091,19,23.020164,72.575743
S-001487,Stop 01487,R-0091,20,23.014086,72.565251
S-001488,Stop 01488,R-0091,21,23.005701,72.552182
S-001489,Stop 01489,R-0091,22,22.997066,72.545408
S-001490,Stop 01490,R-0091,23,22.984899,72.542069
S-001491,Stop 01491,R-0092,1,22.908553,72.718624
S-001492,Stop 01492,R-0092,2,22.910087,72.719608
S-001493,Stop 01493,R-0092,3,22.914873,72.736381
S-001494,Stop 01494,R-0092,4,22.920933,72.740982
S-001495,Stop 01495,R-0092,5,22.919936,72.759898
S-001496,Stop 01496,R-0092,6,22.930086,72.768005
S-001497,Stop 01497,R-0092,7,22.934847,72.775181
S-001498,Stop 01498,R-0092,8,22.933312,72.788043
S-001499,Stop 01499,R-0092,9,22.939555,72.792855
S-001500,Stop 01500,R-0092,10,22.949551,72.806717
S-001501,Stop 01501,R-0092,11,22.949531,72.815168
S-001502,Stop 01502,R-0092,12,22.956717,72.824476
S-001503,Stop 01503,R-0092,13,22.956204,72.836411
S-001504,Stop 01504,R-0092,14,22.966253,72.846044
S-001505,Stop 01505,R-0092,15,22.971833,72.862793
S-001506,Stop 01506,R-0092,16,22.973656,72.864693
S-001507,Stop 01507,R-0092,17,22.974252,72.877318
S-001508,Stop 01508,R-0092,18,22.979926,72.888389
S-001509,Stop 01509,R-0093,1,23.163297,72.696411
S-001510,Stop 01510,R-0093,2,23.163057,72.704934
S-001511,Stop 01511,R-0093,3,23.1621,72.704499
S-001512,Stop 01512,R-0093,4,23.162288,72.708819
S-001513,Stop 01513,R-0093,5,23.156902,72.720037
S-001514,Stop 01514,R-0093,6,23.164641,72.717018
S-001515,Stop 01515,R-0093,7,23.163466,72.72753
S-001516,Stop 01516,R-0093,8,23.158357,72.727457
S-001517,Stop 01517,R-0094,1,22.916822,72.87253
S-001518,Stop 01518,R-0094,2,22.92204,72.869713
S-001519,Stop 01519,R-0094,3,22.931556,72.867965
S-001520,Stop 01520,R-0094,4,22.938334,72.866309
S-001521,Stop 01521,R-0094,5,22.940848,72.862897
S-001522,Stop 01522,R-0094,6,22.9481,72.867893
S-001523,Stop 01523,R-0094,7,22.955364,72.86241
S-001524,Stop 01524,R-0094,8,22.962193,72.857332
S-001525,Stop 01525,R-0094,9,22.965239,72.858453
S-001526,Stop 01526,R-0094,10,22.968679,72.859317
S-001527,Stop 01527,R-0094,11,22.976453,72.85255
S-001528,Stop 01528,R-0094,12,22.989659,72.846056
S-001529,Stop 01529,R-0094,13,22.995167,72.843485
S-001530,Stop 01530,R-0094,14,22.999132,72.849881
S-001531,Stop 01531,R-0094,15,23.004107,72.84181
S-001532,Stop 01532,R-0094,16,23.013427,72.843977
S-001533,Stop 01533,R-0094,17,23.015396,72.833768
S-001534,Stop 01534,R-0094,18,23.019837,72.834022
S-001535,Stop 01535,R-0094,19,23.034974,72.83821
S-001536,Stop 01536,R-0094,20,23.032895,72.833477
S-001537,Stop 01537,R-0094,21,23.043636,72.825741
S-001538,Stop 01538,R-0095,1,22.917652,72.560379
S-001539,Stop 01539,R-0095,2,22.9272,72.562953
S-001540,Stop 01540,R-0095,3,22.929949,72.567519
S-001541,Stop 01541,R-0095,4,22.938672,72.568513
S-001542,Stop 01542,R-0095,5,22.944396,72.572462
S-001543,Stop 01543,R-0095,6,22.948564,72.569167
S-001544,Stop 01544,R-0095,7,22.95886,72.576315
S-001545,Stop 01545,R-0095,8,22.962625,72.58008
S-001546,Stop 01546,R-0095,9,22.969559,72.582193
S-001547,Stop 01547,R-0095,10,22.980197,72.587908
S-001548,Stop 01548,R-0095,11,22.983005,72.591541
S-001549,Stop 01549,R-0095,12,22.992595,72.588385
S-001550,Stop 01550,R-0095,13,22.997121,72.595213
S-001551,Stop 01551,R-0095,14,23.000665,72.592048
S-001552,Stop 01552,R-0095,15,23.009529,72.596081
S-001553,Stop 01553,R-0095,16,23.016217,72.602465
S-001554,Stop 01554,R-0095,17,23.020957,72.602233
S-001555,Stop 01555,R-0095,18,23.033597,72.6004
S-001556,Stop 01556,R-0095,19,23.030988,72.605932
S-001557,Stop 01557,R-0095,20,23.037447,72.607127
S-001558,Stop 01558,R-0095,21,23.052829,72.608532
S-001559,Stop 01559,R-0095,22,23.060412,72.613304
S-001560,Stop 01560,R-0095,23,23.060359,72.62156
S-001561,Stop 01561,R-0095,24,23.073285,72.624757
S-001562,Stop 01562,R-0096,1,23.082008,72.817003
S-001563,Stop 01563,R-0096,2,23.077853,72.807769
S-001564,Stop 01564,R-0096,3,23.071983,72.803918
S-001565,Stop 01565,R-0096,4,23.065271,72.806784
S-001566,Stop 01566,R-0096,5,23.060362,72.795981
S-001567,Stop 01567,R-0096,6,23.056109,72.794654
S-001568,Stop 01568,R-0096,7,23.054038,72.786654
S-001569,Stop 01569,R-0096,8,23.044362,72.783257
S-001570,Stop 01570,R-0096,9,23.043657,72.780423
S-001571,Stop 01571,R-0096,10,23.043064,72.778099
S-001572,Stop 01572,R-0096,11,23.037511,72.767555
S-001573,Stop 01573,R-0096,12,23.030981,72.762506
S-001574,Stop 01574,R-0096,13,23.027884,72.761478
S-001575,Stop 01575,R-0096,14,23.022844,72.762412
S-001576,Stop 01576,R-0096,15,23.013629,72.757522
S-001577,Stop 01577,R-0096,16,23.00987,72.753557
S-001578,Stop 01578,R-0096,17,23.001974,72.747489
S-001579,Stop 01579,R-0096,18,23.003488,72.74381
S-001580,Stop 01580,R-0096,19,23.00054,72.737185
S-001581,Stop 01581,R-0096,20,22.992817,72.726918
S-001582,Stop 01582,R-0096,21,22.986981,72.7251
S-001583,Stop 01583,R-0096,22,22.982629,72.720706
S-001584,Stop 01584,R-0096,23,22.979199,72.7145
S-001585,Stop 01585,R-0096,24,22.9742,72.718472
S-001586,Stop 01586,R-0096,25,22.972416,72.711557
S-001587,Stop 01587,R-0097,1,23.19291,72.621471
S-001588,Stop 01588,R-0097,2,23.19506,72.623923
S-001589,Stop 01589,R-0097,3,23.185745,72.632493
S-001590,Stop 01590,R-0097,4,23.185023,72.638507
S-001591,Stop 01591,R-0097,5,23.175382,72.642302
S-001592,Stop 01592,R-0097,6,23.172288,72.650587
S-001593,Stop 01593,R-0097,7,23.170751,72.653709
S-001594,Stop 01594,R-0097,8,23.160298,72.658144
S-001595,Stop 01595,R-0097,9,23.159218,72.665094
S-001596,Stop 01596,R-0097,10,23.158662,72.670016
S-001597,Stop 01597,R-0097,11,23.146301,72.672728
S-001598,Stop 01598,R-0097,12,23.143366,72.682204
S-001599,Stop 01599,R-0097,13,23.140012,72.681773
S-001600,Stop 01600,R-0097,14,23.133575,72.689592
S-001601,Stop 01601,R-0097,15,23.126531,72.694676
S-001602,Stop 01602,R-0097,16,23.126367,72.704218
S-001603,Stop 01603,R-0097,17,23.116692,72.70531
S-001604,Stop 01604,R-0097,18,23.118402,72.715132
S-001605,Stop 01605,R-0097,19,23.111605,72.7168
S-001606,Stop 01606,R-0097,20,23.109802,72.720022
S-001607,Stop 01607,R-0097,21,23.102601,72.724538
S-001608,Stop 01608,R-0097,22,23.098219,72.729128
S-001609,Stop 01609,R-0097,23,23.093517,72.735991
S-001610,Stop 01610,R-0097,24,23.087518,72.740329
S-001611,Stop 01611,R-0098,1,22.958445,72.766109
S-001612,Stop 01612,R-0098,2,22.958409,72.751506
S-001613,Stop 01613,R-0098,3,22.956512,72.73693
S-001614,Stop 01614,R-0098,4,22.960652,72.724713
S-001615,Stop 01615,R-0098,5,22.959493,72.713096
S-001616,Stop 01616,R-0098,6,22.958079,72.705643
S-001617,Stop 01617,R-0098,7,22.95365,72.693166
S-001618,Stop 01618,R-0098,8,22.951408,72.679843
S-001619,Stop 01619,R-0098,9,22.956848,72.662283
S-001620,Stop 01620,R-0098,10,22.950904,72.652523
S-001621,Stop 01621,R-0098,11,22.956081,72.643697
S-001622,Stop 01622,R-0098,12,22.947708,72.631899
S-001623,Stop 01623,R-0098,13,22.946248,72.617073
S-001624,Stop 01624,R-0098,14,22.947866,72.609542
S-001625,Stop 01625,R-0098,15,22.950742,72.597499
S-001626,Stop 01626,R-0098,16,22.94332,72.585364
S-001627,Stop 01627,R-0098,17,22.948611,72.566837
S-001628,Stop 01628,R-0099,1,23.078228,72.618601
S-001629,Stop 01629,R-0099,2,23.076461,72.625102
S-001630,Stop 01630,R-0099,3,23.067672,72.629887
S-001631,Stop 01631,R-0099,4,23.057969,72.647426
S-001632,Stop 01632,R-0099,5,23.055866,72.653635
S-001633,Stop 01633,R-0099,6,23.044935,72.664484
S-001634,Stop 01634,R-0099,7,23.041866,72.668912
S-001635,Stop 01635,R-0099,8,23.04054,72.672948
S-001636,Stop 01636,R-0099,9,23.034218,72.68507
S-001637,Stop 01637,R-0099,10,23.024677,72.700227
S-001638,Stop 01638,R-0099,11,23.025718,72.701778
S-001639,Stop 01639,R-0099,12,23.010832,72.710347
S-001640,Stop 01640,R-0099,13,23.008362,72.726521
S-001641,Stop 01641,R-0099,14,23.008673,72.734715
S-001642,Stop 01642,R-0099,15,23.002539,72.73628
S-001643,Stop 01643,R-0099,16,22.990745,72.746705
S-001644,Stop 01644,R-0099,17,22.982979,72.758826
S-001645,Stop 01645,R-0099,18,22.981092,72.767059
S-001646,Stop 01646,R-0099,19,22.978891,72.775896
S-001647,Stop 01647,R-0099,20,22.968616,72.783511
S-001648,Stop 01648,R-0100,1,23.181878,72.819228
S-001649,Stop 01649,R-0100,2,23.170983,72.81302
S-001650,Stop 01650,R-0100,3,23.165275,72.806451
S-001651,Stop 01651,R-0100,4,23.164138,72.810533
S-001652,Stop 01652,R-0100,5,23.162868,72.803089
S-001653,Stop 01653,R-0100,6,23.15681,72.802705
S-001654,Stop 01654,R-0100,7,23.146629,72.80489
S-001655,Stop 01655,R-0100,8,23.150551,72.793852
S-001656,Stop 01656,R-0100,9,23.145641,72.799039
S-001657,Stop 01657,R-0100,10,23.135003,72.792908
S-001658,Stop 01658,R-0100,11,23.136831,72.785986
S-001659,Stop 01659,R-0100,12,23.126038,72.791065
S-001660,Stop 01660,R-0100,13,23.12565,72.787391
S-001661,Stop 01661,R-0100,14,23.122698,72.781344
S-001662,Stop 01662,R-0100,15,23.113526,72.7791
S-001663,Stop 01663,R-0100,16,23.114269,72.781079
S-001664,Stop 01664,R-0100,17,23.109781,72.772343
S-001665,Stop 01665,R-0100,18,23.103756,72.768139
S-001666,Stop 01666,R-0100,19,23.09333,72.772163
S-001667,Stop 01667,R-0100,20,23.09312,72.764675
S-001668,Stop 01668,R-0100,21,23.088187,72.761782
S-001669,Stop 01669,R-0101,1,23.091599,72.858626
S-001670,Stop 01670,R-0101,2,23.09392,72.842249
S-001671,Stop 01671,R-0101,3,23.098302,72.818998
S-001672,Stop 01672,R-0101,4,23.105485,72.793118
S-001673,Stop 01673,R-0101,5,23.106472,72.766582
S-001674,Stop 01674,R-0101,6,23.113207,72.740431
S-001675,Stop 01675,R-0101,7,23.114567,72.718965
S-001676,Stop 01676,R-0101,8,23.125828,72.700219
S-001677,Stop 01677,R-0101,9,23.129477,72.669276
S-001678,Stop 01678,R-0101,10,23.130524,72.645164
S-001679,Stop 01679,R-0101,11,23.129692,72.620992
S-001680,Stop 01680,R-0101,12,23.141029,72.5997
S-001681,Stop 01681,R-0101,13,23.141488,72.578271
S-001682,Stop 01682,R-0101,14,23.147821,72.556354
S-001683,Stop 01683,R-0101,15,23.147265,72.531326
S-001684,Stop 01684,R-0102,1,23.072964,72.614386
S-001685,Stop 01685,R-0102,2,23.068129,72.624586
S-001686,Stop 01686,R-0102,3,23.057076,72.633703
S-001687,Stop 01687,R-0102,4,23.051731,72.636097
S-001688,Stop 01688,R-0102,5,23.038759,72.648703
S-001689,Stop 01689,R-0102,6,23.03942,72.661334
S-001690,Stop 01690,R-0102,7,23.026075,72.666358
S-001691,Stop 01691,R-0102,8,23.026432,72.669794
S-001692,Stop 01692,R-0102,9,23.013444,72.685475
S-001693,Stop 01693,R-0102,10,23.012172,72.688145
S-001694,Stop 01694,R-0102,11,22.999918,72.703513
S-001695,Stop 01695,R-0102,12,22.996235,72.70595
S-001696,Stop 01696,R-0102,13,22.983139,72.714458
S-001697,Stop 01697,R-0102,14,22.98364,72.726836
S-001698,Stop 01698,R-0102,15,22.976463,72.732994
S-001699,Stop 01699,R-0102,16,22.966863,72.737686
S-001700,Stop 01700,R-0102,17,22.958385,72.747001
S-001701,Stop 01701,R-0102,18,22.952208,72.762569
S-001702,Stop 01702,R-0102,19,22.944794,72.765979
S-001703,Stop 01703,R-0102,20,22.935541,72.77072
S-001704,Stop 01704,R-0103,1,23.049042,72.534303
S-001705,Stop 01705,R-0103,2,23.038674,72.538421
S-001706,Stop 01706,R-0103,3,23.03267,72.547488
S-001707,Stop 01707,R-0103,4,23.032756,72.555232
S-001708,Stop 01708,R-0103,5,23.024384,72.5552
S-001709,Stop 01709,R-0103,6,23.011857,72.565155
S-001710,Stop 01710,R-0103,7,23.00786,72.572596
S-001711,Stop 01711,R-0103,8,23.001586,72.581966
S-001712,Stop 01712,R-0103,9,22.996377,72.590249
S-001713,Stop 01713,R-0103,10,22.988563,72.591255
S-001714,Stop 01714,R-0103,11,22.985974,72.603268
S-001715,Stop 01715,R-0103,12,22.977461,72.607438
S-001716,Stop 01716,R-0103,13,22.966822,72.616227
S-001717,Stop 01717,R-0103,14,22.960625,72.621357
S-001718,Stop 01718,R-0103,15,22.956547,72.624028
S-001719,Stop 01719,R-0103,16,22.953553,72.632092
S-001720,Stop 01720,R-0103,17,22.945647,72.635502
S-001721,Stop 01721,R-0103,18,22.934213,72.643052
S-001722,Stop 01722,R-0103,19,22.932638,72.650252
S-001723,Stop 01723,R-0103,20,22.924514,72.662971
S-001724,Stop 01724,R-0103,21,22.918878,72.661172
S-001725,Stop 01725,R-0103,22,22.915785,72.67019
S-001726,Stop 01726,R-0104,1,23.18811,72.833802
S-001727,Stop 01727,R-0104,2,23.184312,72.831537
S-001728,Stop 01728,R-0104,3,23.181848,72.83634
S-001729,Stop 01729,R-0104,4,23.174039,72.843848
S-001730,Stop 01730,R-0104,5,23.164556,72.839583
S-001731,Stop 01731,R-0104,6,23.157757,72.843312
S-001732,Stop 01732,R-0104,7,23.153387,72.842234
S-001733,Stop 01733,R-0104,8,23.152441,72.850031
S-001734,Stop 01734,R-0104,9,23.144698,72.846963
S-001735,Stop 01735,R-0104,10,23.137202,72.858111
S-001736,Stop 01736,R-0104,11,23.132453,72.853105
S-001737,Stop 01737,R-0104,12,23.132176,72.859347
S-001738,Stop 01738,R-0104,13,23.126016,72.860059
S-001739,Stop 01739,R-0104,14,23.124683,72.864018
S-001740,Stop 01740,R-0104,15,23.113348,72.858971
S-001741,Stop 01741,R-0104,16,23.112158,72.863928
S-001742,Stop 01742,R-0104,17,23.108175,72.870991
S-001743,Stop 01743,R-0104,18,23.101511,72.873309
S-001744,Stop 01744,R-0104,19,23.089303,72.871672
S-001745,Stop 01745,R-0104,20,23.0846,72.877646
S-001746,Stop 01746,R-0104,21,23.081399,72.875277
S-001747,Stop 01747,R-0104,22,23.074932,72.875318
S-001748,Stop 01748,R-0104,23,23.068142,72.881029
S-001749,Stop 01749,R-0105,1,22.916942,72.802345
S-001750,Stop 01750,R-0105,2,22.919569,72.805025
S-001751,Stop 01751,R-0105,3,22.928157,72.796736
S-001752,Stop 01752,R-0105,4,22.929995,72.795207
S-001753,Stop 01753,R-0105,5,22.934773,72.800171
S-001754,Stop 01754,R-0105,6,22.938669,72.789696
S-001755,Stop 01755,R-0105,7,22.946369,72.791774
S-001756,Stop 01756,R-0105,8,22.952674,72.78968
S-001757,Stop 01757,R-0105,9,22.953766,72.789027
S-001758,Stop 01758,R-0105,10,22.964665,72.790903
S-001759,Stop 01759,R-0105,11,22.963208,72.779529
S-001760,Stop 01760,R-0105,12,22.975059,72.778646
S-001761,Stop 01761,R-0105,13,22.982897,72.783641
S-001762,Stop 01762,R-0105,14,22.990018,72.777964
S-001763,Stop 01763,R-0105,15,22.988978,72.777605
S-001764,Stop 01764,R-0105,16,22.997628,72.770292
S-001765,Stop 01765,R-0105,17,22.998877,72.771174
S-001766,Stop 01766,R-0105,18,23.010379,72.769613
S-001767,Stop 01767,R-0105,19,23.013156,72.767953
S-001768,Stop 01768,R-0105,20,23.013763,72.76975
S-001769,Stop 01769,R-0105,21,23.022727,72.768314
S-001770,Stop 01770,R-0105,22,23.031086,72.759539
S-001771,Stop 01771,R-0105,23,23.032294,72.760731
S-001772,Stop 01772,R-0105,24,23.039529,72.762329
S-001773,Stop 01773,R-0106,1,23.093408,72.698147
S-001774,Stop 01774,R-0106,2,23.082838,72.695348
S-001775,Stop 01775,R-0106,3,23.079532,72.691832
S-001776,Stop 01776,R-0106,4,23.06655,72.691688
S-001777,Stop 01777,R-0106,5,23.059927,72.68866
S-001778,Stop 01778,R-0106,6,23.056727,72.681614
S-001779,Stop 01779,R-0106,7,23.048213,72.679162
S-001780,Stop 01780,R-0106,8,23.03891,72.675475
S-001781,Stop 01781,R-0106,9,23.032995,72.678774
S-001782,Stop 01782,R-0106,10,23.027608,72.671701
S-001783,Stop 01783,R-0106,11,23.021012,72.668356
S-001784,Stop 01784,R-0106,12,23.004216,72.672773
S-001785,Stop 01785,R-0106,13,23.002757,72.668747
S-001786,Stop 01786,R-0106,14,22.99479,72.661605
S-001787,Stop 01787,R-0106,15,22.98762,72.663741
S-001788,Stop 01788,R-0106,16,22.981772,72.659534
S-001789,Stop 01789,R-0106,17,22.969989,72.650184
S-001790,Stop 01790,R-0106,18,22.963571,72.652224
S-001791,Stop 01791,R-0106,19,22.954397,72.649159
S-001792,Stop 01792,R-0106,20,22.954116,72.644187
S-001793,Stop 01793,R-0106,21,22.94022,72.640534
S-001794,Stop 01794,R-0106,22,22.937634,72.644576
S-001795,Stop 01795,R-0106,23,22.931507,72.638622
S-001796,Stop 01796,R-0107,1,23.001931,72.781519
S-001797,Stop 01797,R-0107,2,22.993699,72.790243
S-001798,Stop 01798,R-0107,3,22.995211,72.809953
S-001799,Stop 01799,R-0107,4,22.991698,72.81886
S-001800,Stop 01800,R-0107,5,22.994507,72.830942
S-001801,Stop 01801,R-0107,6,22.994852,72.849493
S-001802,Stop 01802,R-0107,7,22.993174,72.860756
S-001803,Stop 01803,R-0107,8,22.981831,72.876953
S-001804,Stop 01804,R-0108,1,22.990513,72.62742
S-001805,Stop 01805,R-0108,2,22.998347,72.634198
S-001806,Stop 01806,R-0108,3,23.015178,72.630457
S-001807,Stop 01807,R-0108,4,23.023903,72.629562
S-001808,Stop 01808,R-0108,5,23.031225,72.637393
S-001809,Stop 01809,R-0108,6,23.032341,72.63893
S-001810,Stop 01810,R-0108,7,23.047057,72.63485
S-001811,Stop 01811,R-0108,8,23.051226,72.637024
S-001812,Stop 01812,R-0108,9,23.063095,72.643294
S-001813,Stop 01813,R-0108,10,23.073036,72.639699
S-001814,Stop 01814,R-0108,11,23.076452,72.639524
S-001815,Stop 01815,R-0108,12,23.093012,72.645383
S-001816,Stop 01816,R-0108,13,23.093005,72.646619
S-001817,Stop 01817,R-0108,14,23.106027,72.645311
S-001818,Stop 01818,R-0108,15,23.118518,72.652047
S-001819,Stop 01819,R-0108,16,23.123378,72.647127
S-001820,Stop 01820,R-0108,17,23.129304,72.655744
S-001821,Stop 01821,R-0108,18,23.140148,72.648736
S-001822,Stop 01822,R-0108,19,23.143584,72.658668
S-001823,Stop 01823,R-0108,20,23.152351,72.654878
S-001824,Stop 01824,R-0108,21,23.16126,72.656368
S-001825,Stop 01825,R-0108,22,23.175997,72.662769
S-001826,Stop 01826,R-0108,23,23.183798,72.662164
S-001827,Stop 01827,R-0108,24,23.190513,72.660226
S-001828,Stop 01828,R-0109,1,23.065952,72.667428
S-001829,Stop 01829,R-0109,2,23.058222,72.664423
S-001830,Stop 01830,R-0109,3,23.054985,72.665434
S-001831,Stop 01831,R-0109,4,23.04364,72.657984
S-001832,Stop 01832,R-0109,5,23.040847,72.664652
S-001833,Stop 01833,R-0109,6,23.031136,72.6588
S-001834,Stop 01834,R-0109,7,23.027033,72.660135
S-001835,Stop 01835,R-0109,8,23.018578,72.654139
S-001836,Stop 01836,R-0109,9,23.009897,72.659222
S-001837,Stop 01837,R-0109,10,23.007563,72.658529
S-001838,Stop 01838,R-0109,11,22.99905,72.655185
S-001839,Stop 01839,R-0109,12,22.995516,72.654866
S-001840,Stop 01840,R-0109,13,22.991423,72.6503
S-001841,Stop 01841,R-0109,14,22.976637,72.649309
S-001842,Stop 01842,R-0109,15,22.973584,72.647957
S-001843,Stop 01843,R-0109,16,22.965513,72.649813
S-001844,Stop 01844,R-0109,17,22.963584,72.642197
S-001845,Stop 01845,R-0109,18,22.952304,72.647888
S-001846,Stop 01846,R-0110,1,22.959326,72.721183
S-001847,Stop 01847,R-0110,2,22.985715,72.715571
S-001848,Stop 01848,R-0110,3,23.003522,72.709934
S-001849,Stop 01849,R-0110,4,23.027446,72.706835
S-001850,Stop 01850,R-0110,5,23.0527,72.700749
S-001851,Stop 01851,R-0110,6,23.068092,72.700606
S-001852,Stop 01852,R-0110,7,23.092318,72.695866
S-001853,Stop 01853,R-0110,8,23.112485,72.691452
S-001854,Stop 01854,R-0110,9,23.1353,72.681496
S-001855,Stop 01855,R-0110,10,23.158205,72.675469
S-001856,Stop 01856,R-0110,11,23.182611,72.675988
S-001857,Stop 01857,R-0111,1,23.078805,72.59668
S-001858,Stop 01858,R-0111,2,23.074773,72.59736
S-001859,Stop 01859,R-0111,3,23.069828,72.605128
S-001860,Stop 01860,R-0111,4,23.063291,72.613695
S-001861,Stop 01861,R-0111,5,23.059945,72.619341
S-001862,Stop 01862,R-0111,6,23.055145,72.622315
S-001863,Stop 01863,R-0111,7,23.047253,72.62532
S-001864,Stop 01864,R-0111,8,23.036836,72.631759
S-001865,Stop 01865,R-0111,9,23.034325,72.643584
S-001866,Stop 01866,R-0111,10,23.030472,72.649269
S-001867,Stop 01867,R-0111,11,23.022839,72.651893
S-001868,Stop 01868,R-0111,12,23.013003,72.659183
S-001869,Stop 01869,R-0111,13,23.008416,72.660749
S-001870,Stop 01870,R-0111,14,23.006575,72.667354
S-001871,Stop 01871,R-0111,15,22.999602,72.676816
S-001872,Stop 01872,R-0111,16,22.9947,72.685052
S-001873,Stop 01873,R-0111,17,22.98655,72.690501
S-001874,Stop 01874,R-0111,18,22.983132,72.692841
S-001875,Stop 01875,R-0111,19,22.9732,72.697783
S-001876,Stop 01876,R-0111,20,22.969419,72.706868
S-001877,Stop 01877,R-0111,21,22.955423,72.713018
S-001878,Stop 01878,R-0111,22,22.958335,72.70968
S-001879,Stop 01879,R-0111,23,22.948113,72.725123
S-001880,Stop 01880,R-0112,1,23.177491,72.688236
S-001881,Stop 01881,R-0112,2,23.147368,72.701429
S-001882,Stop 01882,R-0112,3,23.125094,72.712416
S-001883,Stop 01883,R-0112,4,23.101115,72.727878
S-001884,Stop 01884,R-0112,5,23.078875,72.745515
S-001885,Stop 01885,R-0112,6,23.054308,72.7556
S-001886,Stop 01886,R-0112,7,23.029542,72.777791
S-001887,Stop 01887,R-0112,8,23.010231,72.784916
S-001888,Stop 01888,R-0112,9,22.987942,72.804902
S-001889,Stop 01889,R-0112,10,22.955447,72.813747
S-001890,Stop 01890,R-0112,11,22.930397,72.83507
S-001891,Stop 01891,R-0113,1,22.983606,72.83864
S-001892,Stop 01892,R-0113,2,22.988023,72.819517
S-001893,Stop 01893,R-0113,3,23.004363,72.816001
S-001894,Stop 01894,R-0113,4,23.014878,72.803608
S-001895,Stop 01895,R-0113,5,23.024884,72.792141
S-001896,Stop 01896,R-0113,6,23.029763,72.779404
S-001897,Stop 01897,R-0113,7,23.043058,72.768265
S-001898,Stop 01898,R-0113,8,23.046754,72.75792
S-001899,Stop 01899,R-0113,9,23.054209,72.747909
S-001900,Stop 01900,R-0113,10,23.071082,72.739303
S-001901,Stop 01901,R-0113,11,23.076104,72.730702
S-001902,Stop 01902,R-0113,12,23.088814,72.711026
S-001903,Stop 01903,R-0113,13,23.093067,72.704778
S-001904,Stop 01904,R-0113,14,23.106013,72.695003
S-001905,Stop 01905,R-0113,15,23.121583,72.679256
S-001906,Stop 01906,R-0113,16,23.128906,72.672974
S-001907,Stop 01907,R-0113,17,23.139836,72.66447
S-001908,Stop 01908,R-0113,18,23.143675,72.651388
S-001909,Stop 01909,R-0113,19,23.155753,72.641574
S-001910,Stop 01910,R-0113,20,23.16261,72.631035
S-001911,Stop 01911,R-0113,21,23.176433,72.62067
S-001912,Stop 01912,R-0113,22,23.186275,72.608629
S-001913,Stop 01913,R-0113,23,23.194869,72.598622
S-001914,Stop 01914,R-0114,1,23.052822,72.846839
S-001915,Stop 01915,R-0114,2,23.058291,72.841601
S-001916,Stop 01916,R-0114,3,23.065769,72.821666
S-001917,Stop 01917,R-0114,4,23.069837,72.813938
S-001918,Stop 01918,R-0114,5,23.075533,72.791646
S-001919,Stop 01919,R-0114,6,23.085815,72.781757
S-001920,Stop 01920,R-0114,7,23.088184,72.769441
S-001921,Stop 01921,R-0114,8,23.094027,72.753693
S-001922,Stop 01922,R-0114,9,23.103482,72.738939
S-001923,Stop 01923,R-0114,10,23.110542,72.721937
S-001924,Stop 01924,R-0114,11,23.117632,72.705103
S-001925,Stop 01925,R-0114,12,23.121384,72.691908
S-001926,Stop 01926,R-0114,13,23.123584,72.684287
S-001927,Stop 01927,R-0114,14,23.131614,72.668417
S-001928,Stop 01928,R-0114,15,23.138124,72.650639
S-001929,Stop 01929,R-0114,16,23.149065,72.639917
S-001930,Stop 01930,R-0114,17,23.157031,72.627079
S-001931,Stop 01931,R-0114,18,23.1608,72.609197
S-001932,Stop 01932,R-0115,1,23.049934,72.830228
S-001933,Stop 01933,R-0115,2,23.046548,72.813814
S-001934,Stop 01934,R-0115,3,23.044696,72.791849
S-001935,Stop 01935,R-0115,4,23.031298,72.772471
S-001936,Stop 01936,R-0115,5,23.034171,72.755162
S-001937,Stop 01937,R-0115,6,23.024168,72.746157
S-001938,Stop 01938,R-0115,7,23.02129,72.7212
S-001939,Stop 01939,R-0115,8,23.012366,72.707797
S-001940,Stop 01940,R-0115,9,23.00445,72.691365
S-001941,Stop 01941,R-0115,10,23.00017,72.673044
S-001942,Stop 01942,R-0115,11,22.998652,72.650382
S-001943,Stop 01943,R-0115,12,22.98715,72.635809
S-001944,Stop 01944,R-0115,13,22.982866,72.621884
S-001945,Stop 01945,R-0116,1,22.941916,72.717267
S-001946,Stop 01946,R-0116,2,22.945936,72.713281
S-001947,Stop 01947,R-0116,3,22.949797,72.715224
S-001948,Stop 01948,R-0116,4,22.949837,72.719072
S-001949,Stop 01949,R-0116,5,22.953225,72.714478
S-001950,Stop 01950,R-0116,6,22.957164,72.721102
S-001951,Stop 01951,R-0116,7,22.955292,72.717079
S-001952,Stop 01952,R-0116,8,22.960313,72.72043
S-001953,Stop 01953,R-0116,9,22.965337,72.718731
S-001954,Stop 01954,R-0116,10,22.964414,72.715136
S-001955,Stop 01955,R-0116,11,22.972168,72.715208
S-001956,Stop 01956,R-0116,12,22.972443,72.717488
S-001957,Stop 01957,R-0116,13,22.975811,72.715517
S-001958,Stop 01958,R-0116,14,22.978233,72.721027
S-001959,Stop 01959,R-0116,15,22.979171,72.720321
S-001960,Stop 01960,R-0116,16,22.98636,72.716899
S-001961,Stop 01961,R-0116,17,22.97899,72.714073
S-001962,Stop 01962,R-0116,18,22.98202,72.718323
S-001963,Stop 01963,R-0116,19,22.98905,72.721288
S-001964,Stop 01964,R-0116,20,22.989769,72.721908
S-001965,Stop 01965,R-0116,21,22.99123,72.715218
S-001966,Stop 01966,R-0116,22,22.997361,72.715669
S-001967,Stop 01967,R-0116,23,22.999565,72.724262
S-001968,Stop 01968,R-0116,24,22.998249,72.721539
S-001969,Stop 01969,R-0116,25,22.999755,72.725345
S-001970,Stop 01970,R-0117,1,22.96016,72.775298
S-001971,Stop 01971,R-0117,2,22.970931,72.762379
S-001972,Stop 01972,R-0117,3,22.9828,72.742432
S-001973,Stop 01973,R-0117,4,22.99887,72.719098
S-001974,Stop 01974,R-0117,5,23.005215,72.696191
S-001975,Stop 01975,R-0117,6,23.024815,72.67729
S-001976,Stop 01976,R-0117,7,23.037452,72.653047
S-001977,Stop 01977,R-0117,8,23.045266,72.638698
S-001978,Stop 01978,R-0117,9,23.061466,72.612278
S-001979,Stop 01979,R-0117,10,23.068159,72.589165
S-001980,Stop 01980,R-0118,1,23.110396,72.822891
S-001981,Stop 01981,R-0118,2,23.095201,72.821734
S-001982,Stop 01982,R-0118,3,23.085279,72.809198
S-001983,Stop 01983,R-0118,4,23.075581,72.806692
S-001984,Stop 01984,R-0118,5,23.064799,72.791804
S-001985,Stop 01985,R-0118,6,23.051649,72.784073
S-001986,Stop 01986,R-0118,7,23.042447,72.777432
S-001987,Stop 01987,R-0118,8,23.029225,72.776988
S-001988,Stop 01988,R-0118,9,23.017978,72.761509
S-001989,Stop 01989,R-0119,1,22.90681,72.703191
S-001990,Stop 01990,R-0119,2,22.932317,72.712433
S-001991,Stop 01991,R-0119,3,22.94796,72.735103
S-001992,Stop 01992,R-0119,4,22.961431,72.745282
S-001993,Stop 01993,R-0119,5,22.983766,72.762749
S-001994,Stop 01994,R-0119,6,23.001598,72.781476
S-001995,Stop 01995,R-0119,7,23.016775,72.800968
S-001996,Stop 01996,R-0119,8,23.042887,72.815003
S-001997,Stop 01997,R-0119,9,23.057654,72.833828
S-001998,Stop 01998,R-0119,10,23.080177,72.843581
S-001999,Stop 01999,R-0120,1,23.032111,72.79352
S-002000,Stop 02000,R-0120,2,23.039252,72.786865
S-002001,Stop 02001,R-0120,3,23.035738,72.789462
S-002002,Stop 02002,R-0120,4,23.032649,72.784997
S-002003,Stop 02003,R-0120,5,23.03206,72.782568
S-002004,Stop 02004,R-0120,6,23.036636,72.775219
S-002005,Stop 02005,R-0120,7,23.031388,72.781988
S-002006,Stop 02006,R-0120,8,23.025841,72.775042
S-002007,Stop 02007,R-0120,9,23.031695,72.77499
S-002008,Stop 02008,R-0120,10,23.02479,72.766972
S-002009,Stop 02009,R-0120,11,23.02586,72.766556
S-002010,Stop 02010,R-0120,12,23.027971,72.771677
S-002011,Stop 02011,R-0120,13,23.026312,72.764372
S-002012,Stop 02012,R-0120,14,23.019849,72.765174
S-002013,Stop 02013,R-0120,15,23.025347,72.758312
S-002014,Stop 02014,R-0121,1,22.996822,72.782046
S-002015,Stop 02015,R-0121,2,23.006136,72.780864
S-002016,Stop 02016,R-0121,3,23.018862,72.788304
S-002017,Stop 02017,R-0121,4,23.023115,72.796414
S-002018,Stop 02018,R-0121,5,23.033419,72.801324
S-002019,Stop 02019,R-0121,6,23.032649,72.799946
S-002020,Stop 02020,R-0121,7,23.043045,72.808657
S-002021,Stop 02021,R-0121,8,23.050906,72.808458
S-002022,Stop 02022,R-0121,9,23.060573,72.816466
S-002023,Stop 02023,R-0121,10,23.070619,72.824831
S-002024,Stop 02024,R-0121,11,23.073767,72.828434
S-002025,Stop 02025,R-0121,12,23.077914,72.826638
S-002026,Stop 02026,R-0121,13,23.090122,72.835701
S-002027,Stop 02027,R-0121,14,23.090142,72.844778
S-002028,Stop 02028,R-0122,1,22.992425,72.788975
S-002029,Stop 02029,R-0122,2,23.006745,72.796497
S-002030,Stop 02030,R-0122,3,23.03225,72.806061
S-002031,Stop 02031,R-0122,4,23.04078,72.811649
S-002032,Stop 02032,R-0122,5,23.064763,72.81386
S-002033,Stop 02033,R-0122,6,23.081187,72.822045
S-002034,Stop 02034,R-0122,7,23.095565,72.834743
S-002035,Stop 02035,R-0122,8,23.106849,72.838296
S-002036,Stop 02036,R-0122,9,23.126194,72.852312
S-002037,Stop 02037,R-0123,1,23.174521,72.903729
S-002038,Stop 02038,R-0123,2,23.174289,72.883481
S-002039,Stop 02039,R-0123,3,23.174143,72.878177
S-002040,Stop 02040,R-0123,4,23.170671,72.864314
S-002041,Stop 02041,R-0123,5,23.163634,72.847729
S-002042,Stop 02042,R-0123,6,23.158942,72.838811
S-002043,Stop 02043,R-0123,7,23.161742,72.828331
S-002044,Stop 02044,R-0123,8,23.156416,72.820192
S-002045,Stop 02045,R-0123,9,23.149686,72.800072
S-002046,Stop 02046,R-0123,10,23.155003,72.793335
S-002047,Stop 02047,R-0123,11,23.151556,72.775505
S-002048,Stop 02048,R-0123,12,23.145899,72.76355
S-002049,Stop 02049,R-0123,13,23.140074,72.752516
S-002050,Stop 02050,R-0123,14,23.142047,72.748631
S-002051,Stop 02051,R-0123,15,23.136942,72.735974
S-002052,Stop 02052,R-0123,16,23.137755,72.722961
S-002053,Stop 02053,R-0123,17,23.129341,72.710574
S-002054,Stop 02054,R-0123,18,23.129761,72.696434
S-002055,Stop 02055,R-0123,19,23.131161,72.686557
S-002056,Stop 02056,R-0123,20,23.119406,72.670389
S-002057,Stop 02057,R-0124,1,23.034224,72.77348
S-002058,Stop 02058,R-0124,2,23.042638,72.76383
S-002059,Stop 02059,R-0124,3,23.04483,72.754613
S-002060,Stop 02060,R-0124,4,23.048831,72.74712
S-002061,Stop 02061,R-0124,5,23.062949,72.731661
S-002062,Stop 02062,R-0124,6,23.068077,72.723558
S-002063,Stop 02063,R-0124,7,23.070795,72.70655
S-002064,Stop 02064,R-0124,8,23.078253,72.692207
S-002065,Stop 02065,R-0124,9,23.078789,72.679471
S-002066,Stop 02066,R-0124,10,23.086019,72.675
S-002067,Stop 02067,R-0124,11,23.099911,72.659755
S-002068,Stop 02068,R-0124,12,23.098663,72.652225
S-002069,Stop 02069,R-0124,13,23.103875,72.634858
S-002070,Stop 02070,R-0124,14,23.1117,72.621948
S-002071,Stop 02071,R-0124,15,23.122041,72.616553
S-002072,Stop 02072,R-0124,16,23.126674,72.596914
S-002073,Stop 02073,R-0124,17,23.128936,72.589462
S-002074,Stop 02074,R-0124,18,23.136261,72.572597
S-002075,Stop 02075,R-0124,19,23.146099,72.561233
S-002076,Stop 02076,R-0124,20,23.149572,72.55319
S-002077,Stop 02077,R-0124,21,23.159286,72.541151
S-002078,Stop 02078,R-0124,22,23.167229,72.534162
S-002079,Stop 02079,R-0124,23,23.168328,72.514497
S-002080,Stop 02080,R-0125,1,22.939652,72.714844
S-002081,Stop 02081,R-0125,2,22.956378,72.71869
S-002082,Stop 02082,R-0125,3,22.958893,72.727111
S-002083,Stop 02083,R-0125,4,22.970538,72.738774
S-002084,Stop 02084,R-0125,5,22.976151,72.746615
S-002085,Stop 02085,R-0125,6,22.988259,72.748676
S-002086,Stop 02086,R-0125,7,22.994081,72.759468
S-002087,Stop 02087,R-0125,8,23.008045,72.769493
S-002088,Stop 02088,R-0125,9,23.012754,72.768477
S-002089,Stop 02089,R-0125,10,23.026662,72.775268
S-002090,Stop 02090,R-0125,11,23.030112,72.790656
S-002091,Stop 02091,R-0125,12,23.042341,72.791318
S-002092,Stop 02092,R-0125,13,23.050198,72.805938
S-002093,Stop 02093,R-0125,14,23.061807,72.812436
S-002094,Stop 02094,R-0125,15,23.071158,72.818123
S-002095,Stop 02095,R-0126,1,23.086694,72.59686
S-002096,Stop 02096,R-0126,2,23.090538,72.592192
S-002097,Stop 02097,R-0126,3,23.100787,72.59344
S-002098,Stop 02098,R-0126,4,23.105061,72.586296
S-002099,Stop 02099,R-0126,5,23.114853,72.578449
S-002100,Stop 02100,R-0126,6,23.121834,72.583773
S-002101,Stop 02101,R-0126,7,23.127359,72.576132
S-002102,Stop 02102,R-0126,8,23.134433,72.577807
S-002103,Stop 02103,R-0126,9,23.149,72.574413
S-002104,Stop 02104,R-0126,10,23.155848,72.566196
S-002105,Stop 02105,R-0126,11,23.154635,72.568674
S-002106,Stop 02106,R-0126,12,23.168856,72.560546
S-002107,Stop 02107,R-0126,13,23.173106,72.55619
S-002108,Stop 02108,R-0127,1,22.902343,72.819258
S-002109,Stop 02109,R-0127,2,22.930158,72.811896
S-002110,Stop 02110,R-0127,3,22.958646,72.816191
S-002111,Stop 02111,R-0127,4,22.979409,72.804568
S-002112,Stop 02112,R-0127,5,23.011313,72.797437
S-002113,Stop 02113,R-0127,6,23.036389,72.794497
S-002114,Stop 02114,R-0127,7,23.065378,72.794947
S-002115,Stop 02115,R-0127,8,23.092573,72.781531
S-002116,Stop 02116,R-0127,9,23.116403,72.783924
S-002117,Stop 02117,R-0127,10,23.147351,72.775179
S-002118,Stop 02118,R-0127,11,23.173262,72.769748
S-002119,Stop 02119,R-0128,1,23.078311,72.750589
S-002120,Stop 02120,R-0128,2,23.075213,72.747017
S-002121,Stop 02121,R-0128,3,23.073515,72.741071
S-002122,Stop 02122,R-0128,4,23.067241,72.735884
S-002123,Stop 02123,R-0128,5,23.068923,72.727074
S-002124,Stop 02124,R-0128,6,23.065363,72.715614
S-002125,Stop 02125,R-0128,7,23.064125,72.712341
S-002126,Stop 02126,R-0128,8,23.058303,72.708052
S-002127,Stop 02127,R-0128,9,23.057761,72.700423
S-002128,Stop 02128,R-0128,10,23.053921,72.684432
S-002129,Stop 02129,R-0128,11,23.051778,72.681164
S-002130,Stop 02130,R-0128,12,23.046025,72.672768
S-002131,Stop 02131,R-0128,13,23.049766,72.668746
S-002132,Stop 02132,R-0128,14,23.046559,72.662027
S-002133,Stop 02133,R-0128,15,23.040003,72.650234
S-002134,Stop 02134,R-0128,16,23.041683,72.645968
S-002135,Stop 02135,R-0128,17,23.041328,72.639594
S-002136,Stop 02136,R-0128,18,23.040334,72.631693
S-002137,Stop 02137,R-0128,19,23.036822,72.624867
S-002138,Stop 02138,R-0128,20,23.030162,72.618831
S-002139,Stop 02139,R-0128,21,23.029661,72.606675
S-002140,Stop 02140,R-0128,22,23.022838,72.598767
S-002141,Stop 02141,R-0129,1,23.044824,72.595149
S-002142,Stop 02142,R-0129,2,23.042456,72.603411
S-002143,Stop 02143,R-0129,3,23.04928,72.608072
S-002144,Stop 02144,R-0129,4,23.046687,72.615383
S-002145,Stop 02145,R-0129,5,23.053031,72.625058
S-002146,Stop 02146,R-0129,6,23.054387,72.631444
S-002147,Stop 02147,R-0129,7,23.048223,72.637385
S-002148,Stop 02148,R-0129,8,23.053412,72.635698
S-002149,Stop 02149,R-0129,9,23.059081,72.644211
S-002150,Stop 02150,R-0129,10,23.060935,72.648851
S-002151,Stop 02151,R-0129,11,23.055395,72.661159
S-002152,Stop 02152,R-0129,12,23.058866,72.669369
S-002153,Stop 02153,R-0129,13,23.060377,72.673322
S-002154,Stop 02154,R-0129,14,23.05937,72.683176
S-002155,Stop 02155,R-0129,15,23.06312,72.681231
S-002156,Stop 02156,R-0129,16,23.06244,72.69078
S-002157,Stop 02157,R-0129,17,23.066687,72.695687
S-002158,Stop 02158,R-0129,18,23.062137,72.70792
S-002159,Stop 02159,R-0129,19,23.065098,72.715108
S-002160,Stop 02160,R-0129,20,23.070489,72.716181
S-002161,Stop 02161,R-0129,21,23.068738,72.724955
S-002162,Stop 02162,R-0129,22,23.06984,72.730859
S-002163,Stop 02163,R-0130,1,23.100888,72.609245
S-002164,Stop 02164,R-0130,2,23.094306,72.613265
S-002165,Stop 02165,R-0130,3,23.097955,72.620816
S-002166,Stop 02166,R-0130,4,23.091457,72.631095
S-002167,Stop 02167,R-0130,5,23.097361,72.641103
S-002168,Stop 02168,R-0130,6,23.086923,72.64409
S-002169,Stop 02169,R-0130,7,23.089805,72.649376
S-002170,Stop 02170,R-0130,8,23.093283,72.661984
S-002171,Stop 02171,R-0130,9,23.08569,72.671751
S-002172,Stop 02172,R-0130,10,23.090027,72.676101
S-002173,Stop 02173,R-0130,11,23.087093,72.677861
S-002174,Stop 02174,R-0130,12,23.081605,72.683891
S-002175,Stop 02175,R-0130,13,23.081188,72.691897
S-002176,Stop 02176,R-0130,14,23.079422,72.699631
S-002177,Stop 02177,R-0130,15,23.081239,72.705286
S-002178,Stop 02178,R-0130,16,23.07758,72.715531
S-002179,Stop 02179,R-0130,17,23.076936,72.724645
S-002180,Stop 02180,R-0130,18,23.073628,72.729415
S-002181,Stop 02181,R-0130,19,23.080003,72.737599
S-002182,Stop 02182,R-0130,20,23.074589,72.74216
S-002183,Stop 02183,R-0130,21,23.072971,72.751062
S-002184,Stop 02184,R-0130,22,23.06723,72.762398
S-002185,Stop 02185,R-0130,23,23.075739,72.765479
S-002186,Stop 02186,R-0130,24,23.071834,72.774059
S-002187,Stop 02187,R-0131,1,23.053714,72.864204
S-002188,Stop 02188,R-0131,2,23.050011,72.860699
S-002189,Stop 02189,R-0131,3,23.044119,72.858683
S-002190,Stop 02190,R-0131,4,23.041398,72.852152
S-002191,Stop 02191,R-0131,5,23.029351,72.850922
S-002192,Stop 02192,R-0131,6,23.024681,72.85028
S-002193,Stop 02193,R-0131,7,23.021502,72.841116
S-002194,Stop 02194,R-0131,8,23.022561,72.840439
S-002195,Stop 02195,R-0131,9,23.016012,72.838867
S-002196,Stop 02196,R-0131,10,23.014572,72.834922
S-002197,Stop 02197,R-0131,11,23.009807,72.838151
S-002198,Stop 02198,R-0131,12,23.008266,72.829663
S-002199,Stop 02199,R-0131,13,22.997484,72.833568
S-002200,Stop 02200,R-0131,14,22.999471,72.832017
S-002201,Stop 02201,R-0131,15,22.998511,72.823753
S-002202,Stop 02202,R-0131,16,22.98971,72.823208
S-002203,Stop 02203,R-0131,17,22.985974,72.815104
S-002204,Stop 02204,R-0132,1,23.085243,72.773266
S-002205,Stop 02205,R-0132,2,23.087211,72.769554
S-002206,Stop 02206,R-0132,3,23.084724,72.768729
S-002207,Stop 02207,R-0132,4,23.08935,72.769323
S-002208,Stop 02208,R-0132,5,23.093547,72.766611
S-002209,Stop 02209,R-0132,6,23.098482,72.771457
S-002210,Stop 02210,R-0132,7,23.095427,72.768053
S-002211,Stop 02211,R-0132,8,23.094576,72.770495
S-002212,Stop 02212,R-0132,9,23.103583,72.770088
S-002213,Stop 02213,R-0132,10,23.100415,72.770745
S-002214,Stop 02214,R-0132,11,23.10392,72.763413
S-002215,Stop 02215,R-0132,12,23.10264,72.771447
S-002216,Stop 02216,R-0132,13,23.106528,72.764505
S-002217,Stop 02217,R-0132,14,23.112274,72.766645
S-002218,Stop 02218,R-0132,15,23.108367,72.760391
S-002219,Stop 02219,R-0132,16,23.112665,72.762645
S-002220,Stop 02220,R-0132,17,23.109693,72.76412
S-002221,Stop 02221,R-0132,18,23.115291,72.768235
S-002222,Stop 02222,R-0132,19,23.113272,72.766996
S-002223,Stop 02223,R-0133,1,23.094441,72.618995
S-002224,Stop 02224,R-0133,2,23.093311,72.633685
S-002225,Stop 02225,R-0133,3,23.084234,72.637698
S-002226,Stop 02226,R-0133,4,23.081976,72.63914
S-002227,Stop 02227,R-0133,5,23.073513,72.648264
S-002228,Stop 02228,R-0133,6,23.079195,72.660746
S-002229,Stop 02229,R-0133,7,23.070507,72.665708
S-002230,Stop 02230,R-0133,8,23.070855,72.670107
S-002231,Stop 02231,R-0133,9,23.062993,72.67958
S-002232,Stop 02232,R-0133,10,23.056669,72.680661
S-002233,Stop 02233,R-0133,11,23.05314,72.696177
S-002234,Stop 02234,R-0133,12,23.047181,72.700455
S-002235,Stop 02235,R-0133,13,23.048471,72.705421
S-002236,Stop 02236,R-0133,14,23.047491,72.712812
S-002237,Stop 02237,R-0133,15,23.039714,72.72024
S-002238,Stop 02238,R-0133,16,23.032296,72.725189
S-002239,Stop 02239,R-0133,17,23.033,72.735283
S-002240,Stop 02240,R-0134,1,23.125061,72.566717
S-002241,Stop 02241,R-0134,2,23.108471,72.584314
S-002242,Stop 02242,R-0134,3,23.092052,72.590036
S-002243,Stop 02243,R-0134,4,23.076707,72.607995
S-002244,Stop 02244,R-0134,5,23.067264,72.614245
S-002245,Stop 02245,R-0134,6,23.045246,72.632273
S-002246,Stop 02246,R-0134,7,23.027714,72.639948
S-002247,Stop 02247,R-0134,8,23.017843,72.657782
S-002248,Stop 02248,R-0134,9,23.002168,72.663932
S-002249,Stop 02249,R-0134,10,22.984023,72.677548
S-002250,Stop 02250,R-0134,11,22.973864,72.694511
S-002251,Stop 02251,R-0134,12,22.952746,72.705617
S-002252,Stop 02252,R-0134,13,22.938273,72.716107
S-002253,Stop 02253,R-0135,1,23.152375,72.597917
S-002254,Stop 02254,R-0135,2,23.149227,72.606515
S-002255,Stop 02255,R-0135,3,23.148798,72.611186
S-002256,Stop 02256,R-0135,4,23.152961,72.613804
S-002257,Stop 02257,R-0135,5,23.145302,72.619988
S-002258,Stop 02258,R-0135,6,23.145544,72.631745
S-002259,Stop 02259,R-0135,7,23.149698,72.636086
S-002260,Stop 02260,R-0135,8,23.148724,72.63809
S-002261,Stop 02261,R-0135,9,23.148882,72.645329
S-002262,Stop 02262,R-0135,10,23.144414,72.647368
S-002263,Stop 02263,R-0135,11,23.143942,72.655949
S-002264,Stop 02264,R-0135,12,23.152316,72.657553
S-002265,Stop 02265,R-0135,13,23.146101,72.661381
S-002266,Stop 02266,R-0135,14,23.151059,72.67165
S-002267,Stop 02267,R-0135,15,23.148769,72.675386
S-002268,Stop 02268,R-0135,16,23.146117,72.679846
S-002269,Stop 02269,R-0135,17,23.142887,72.68589
S-002270,Stop 02270,R-0135,18,23.144727,72.69131
S-002271,Stop 02271,R-0135,19,23.143831,72.690005
S-002272,Stop 02272,R-0136,1,22.931649,72.889968
S-002273,Stop 02273,R-0136,2,22.934497,72.887918
S-002274,Stop 02274,R-0136,3,22.932064,72.880607
S-002275,Stop 02275,R-0136,4,22.936487,72.884863
S-002276,Stop 02276,R-0136,5,22.934306,72.88101
S-002277,Stop 02277,R-0136,6,22.939638,72.886745
S-002278,Stop 02278,R-0136,7,22.938429,72.890029
S-002279,Stop 02279,R-0136,8,22.934869,72.884092
S-002280,Stop 02280,R-0136,9,22.935236,72.882171
S-002281,Stop 02281,R-0136,10,22.937069,72.887356
S-002282,Stop 02282,R-0136,11,22.942405,72.883469
S-002283,Stop 02283,R-0136,12,22.943933,72.881893
S-002284,Stop 02284,R-0137,1,23.19364,72.826253
S-002285,Stop 02285,R-0137,2,23.178265,72.819808
S-002286,Stop 02286,R-0137,3,23.153978,72.82083
S-002287,Stop 02287,R-0137,4,23.143253,72.817736
S-002288,Stop 02288,R-0137,5,23.125266,72.815804
S-002289,Stop 02289,R-0137,6,23.108941,72.814447
S-002290,Stop 02290,R-0137,7,23.088925,72.815717
S-002291,Stop 02291,R-0137,8,23.073169,72.822312
S-002292,Stop 02292,R-0137,9,23.059317,72.822526
S-002293,Stop 02293,R-0137,10,23.038529,72.814424
S-002294,Stop 02294,R-0137,11,23.026179,72.818856
S-002295,Stop 02295,R-0137,12,23.008398,72.817167
S-002296,Stop 02296,R-0138,1,23.103584,72.765009
S-002297,Stop 02297,R-0138,2,23.103935,72.776608
S-002298,Stop 02298,R-0138,3,23.098568,72.774796
S-002299,Stop 02299,R-0138,4,23.097142,72.780126
S-002300,Stop 02300,R-0138,5,23.094948,72.780029
S-002301,Stop 02301,R-0138,6,23.095741,72.783187
S-002302,Stop 02302,R-0138,7,23.092896,72.78397
S-002303,Stop 02303,R-0138,8,23.095243,72.784769
S-002304,Stop 02304,R-0138,9,23.091698,72.790653
S-002305,Stop 02305,R-0138,10,23.090069,72.797025
S-002306,Stop 02306,R-0138,11,23.091109,72.800933
S-002307,Stop 02307,R-0138,12,23.085237,72.799454
S-002308,Stop 02308,R-0138,13,23.091567,72.802519
S-002309,Stop 02309,R-0138,14,23.089024,72.810046
S-002310,Stop 02310,R-0138,15,23.087219,72.813347
S-002311,Stop 02311,R-0138,16,23.081608,72.806943
S-002312,Stop 02312,R-0138,17,23.083415,72.816395
S-002313,Stop 02313,R-0138,18,23.079376,72.817759
S-002314,Stop 02314,R-0138,19,23.080916,72.816583
S-002315,Stop 02315,R-0138,20,23.076838,72.8252
S-002316,Stop 02316,R-0138,21,23.081405,72.828523
S-002317,Stop 02317,R-0138,22,23.079292,72.825654
S-002318,Stop 02318,R-0139,1,22.912259,72.85208
S-002319,Stop 02319,R-0139,2,22.917396,72.85929
S-002320,Stop 02320,R-0139,3,22.921614,72.858454
S-002321,Stop 02321,R-0139,4,22.936578,72.853547
S-002322,Stop 02322,R-0139,5,22.945401,72.857271
S-002323,Stop 02323,R-0139,6,22.949935,72.860036
S-002324,Stop 02324,R-0139,7,22.962584,72.856832
S-002325,Stop 02325,R-0139,8,22.969843,72.859551
S-002326,Stop 02326,R-0139,9,22.978069,72.859054
S-002327,Stop 02327,R-0139,10,22.985753,72.862578
S-002328,Stop 02328,R-0139,11,22.992985,72.858094
S-002329,Stop 02329,R-0139,12,23.005817,72.86256
S-002330,Stop 02330,R-0139,13,23.01113,72.857962
S-002331,Stop 02331,R-0139,14,23.019252,72.858338
S-002332,Stop 02332,R-0139,15,23.034444,72.868065
S-002333,Stop 02333,R-0139,16,23.040429,72.865826
S-002334,Stop 02334,R-0139,17,23.04707,72.865943
S-002335,Stop 02335,R-0139,18,23.055446,72.861178
S-002336,Stop 02336,R-0139,19,23.070938,72.868778
S-002337,Stop 02337,R-0140,1,23.169835,72.622497
S-002338,Stop 02338,R-0140,2,23.16556,72.615399
S-002339,Stop 02339,R-0140,3,23.156935,72.618286
S-002340,Stop 02340,R-0140,4,23.151807,72.616121
S-002341,Stop 02341,R-0140,5,23.139498,72.607806
S-002342,Stop 02342,R-0140,6,23.141173,72.604244
S-002343,Stop 02343,R-0140,7,23.128011,72.601078
S-002344,Stop 02344,R-0140,8,23.122304,72.59455
S-002345,Stop 02345,R-0140,9,23.116115,72.599731
S-002346,Stop 02346,R-0140,10,23.106421,72.595094
S-002347,Stop 02347,R-0140,11,23.101147,72.586285
S-002348,Stop 02348,R-0140,12,23.096231,72.586721
S-002349,Stop 02349,R-0140,13,23.083009,72.585503
S-002350,Stop 02350,R-0140,14,23.081357,72.582513
S-002351,Stop 02351,R-0140,15,23.07332,72.577325
S-002352,Stop 02352,R-0140,16,23.068983,72.574539
S-002353,Stop 02353,R-0140,17,23.057195,72.571326
S-002354,Stop 02354,R-0140,18,23.055831,72.569455
S-002355,Stop 02355,R-0140,19,23.042492,72.56997
S-002356,Stop 02356,R-0140,20,23.035011,72.55738
S-002357,Stop 02357,R-0140,21,23.025099,72.562374
S-002358,Stop 02358,R-0140,22,23.020978,72.558332
S-002359,Stop 02359,R-0141,1,22.93181,72.856156
S-002360,Stop 02360,R-0141,2,22.929612,72.829407
S-002361,Stop 02361,R-0141,3,22.937375,72.804467
S-002362,Stop 02362,R-0141,4,22.929669,72.778012
S-002363,Stop 02363,R-0141,5,22.933099,72.753913
S-002364,Stop 02364,R-0141,6,22.933251,72.732894
S-002365,Stop 02365,R-0141,7,22.94274,72.702381
S-002366,Stop 02366,R-0141,8,22.937397,72.681842
S-002367,Stop 02367,R-0142,1,23.025347,72.800542
S-002368,Stop 02368,R-0142,2,23.016496,72.784553
S-002369,Stop 02369,R-0142,3,23.003559,72.766129
S-002370,Stop 02370,R-0142,4,22.99685,72.752658
S-002371,Stop 02371,R-0142,5,22.984825,72.730334
S-002372,Stop 02372,R-0142,6,22.97685,72.718145
S-002373,Stop 02373,R-0142,7,22.962203,72.700444
S-002374,Stop 02374,R-0142,8,22.954639,72.682351
S-002375,Stop 02375,R-0142,9,22.949006,72.664349
S-002376,Stop 02376,R-0143,1,23.184089,72.512447
S-002377,Stop 02377,R-0143,2,23.174532,72.526827
S-002378,Stop 02378,R-0143,3,23.16654,72.537024
S-002379,Stop 02379,R-0143,4,23.153134,72.54176
S-002380,Stop 02380,R-0143,5,23.137357,72.559116
S-002381,Stop 02381,R-0143,6,23.130008,72.561679
S-002382,Stop 02382,R-0143,7,23.122524,72.570606
S-002383,Stop 02383,R-0143,8,23.112643,72.580901
S-002384,Stop 02384,R-0143,9,23.096676,72.590893
S-002385,Stop 02385,R-0143,10,23.090426,72.605239
S-002386,Stop 02386,R-0143,11,23.073618,72.61871
S-002387,Stop 02387,R-0143,12,23.067142,72.624038
S-002388,Stop 02388,R-0143,13,23.057775,72.635616
S-002389,Stop 02389,R-0143,14,23.044239,72.643554
S-002390,Stop 02390,R-0143,15,23.031969,72.658069
S-002391,Stop 02391,R-0143,16,23.021585,72.669721
S-002392,Stop 02392,R-0143,17,23.007965,72.672539
S-002393,Stop 02393,R-0144,1,23.109331,72.718554
S-002394,Stop 02394,R-0144,2,23.106644,72.719176
S-002395,Stop 02395,R-0144,3,23.115748,72.710997
S-002396,Stop 02396,R-0144,4,23.121508,72.70842
S-002397,Stop 02397,R-0144,5,23.122092,72.707553
S-002398,Stop 02398,R-0144,6,23.124095,72.702292
S-002399,Stop 02399,R-0144,7,23.129837,72.698622
S-002400,Stop 02400,R-0144,8,23.131023,72.691646
S-002401,Stop 02401,R-0144,9,23.132695,72.69379
S-002402,Stop 02402,R-0144,10,23.138004,72.68806
S-002403,Stop 02403,R-0144,11,23.141999,72.688777
S-002404,Stop 02404,R-0144,12,23.143267,72.679279
S-002405,Stop 02405,R-0144,13,23.150558,72.68225
S-002406,Stop 02406,R-0144,14,23.156705,72.673346
S-002407,Stop 02407,R-0144,15,23.160068,72.671609
S-002408,Stop 02408,R-0144,16,23.159002,72.666238
S-002409,Stop 02409,R-0144,17,23.164133,72.66936
S-002410,Stop 02410,R-0144,18,23.17013,72.663455
S-002411,Stop 02411,R-0144,19,23.17366,72.661095
S-002412,Stop 02412,R-0144,20,23.17348,72.652988
S-002413,Stop 02413,R-0144,21,23.178285,72.650747
S-002414,Stop 02414,R-0144,22,23.188767,72.651519
S-002415,Stop 02415,R-0144,23,23.186302,72.650226
S-002416,Stop 02416,R-0144,24,23.197991,72.643328
S-002417,Stop 02417,R-0145,1,23.149963,72.685852
S-002418,Stop 02418,R-0145,2,23.144609,72.690552
S-002419,Stop 02419,R-0145,3,23.134166,72.707808
S-002420,Stop 02420,R-0145,4,23.134558,72.715659
S-002421,Stop 02421,R-0145,5,23.126508,72.723596
S-002422,Stop 02422,R-0145,6,23.118109,72.73874
S-002423,Stop 02423,R-0145,7,23.104131,72.746707
S-002424,Stop 02424,R-0145,8,23.098833,72.752888
S-002425,Stop 02425,R-0146,1,22.970589,72.554216
S-002426,Stop 02426,R-0146,2,22.974639,72.545596
S-002427,Stop 02427,R-0146,3,22.984512,72.546669
S-002428,Stop 02428,R-0146,4,22.986475,72.546279
S-002429,Stop 02429,R-0146,5,22.992303,72.543742
S-002430,Stop 02430,R-0146,6,22.993235,72.541829
S-002431,Stop 02431,R-0146,7,22.994945,72.549089
S-002432,Stop 02432,R-0146,8,23.001775,72.540936
S-002433,Stop 02433,R-0146,9,23.007462,72.542299
S-002434,Stop 02434,R-0146,10,23.009501,72.545886
S-002435,Stop 02435,R-0146,11,23.013106,72.53964
S-002436,Stop 02436,R-0146,12,23.020956,72.544039
S-002437,Stop 02437,R-0146,13,23.02711,72.542778
S-002438,Stop 02438,R-0146,14,23.026133,72.539569
S-002439,Stop 02439,R-0146,15,23.034903,72.531626
S-002440,Stop 02440,R-0146,16,23.040545,72.536476
S-002441,Stop 02441,R-0146,17,23.043478,72.536044
S-002442,Stop 02442,R-0146,18,23.048659,72.535332
S-002443,Stop 02443,R-0146,19,23.051326,72.529825
S-002444,Stop 02444,R-0146,20,23.053152,72.529524
S-002445,Stop 02445,R-0146,21,23.061397,72.529063
S-002446,Stop 02446,R-0146,22,23.064121,72.525658
S-002447,Stop 02447,R-0146,23,23.068855,72.532017
S-002448,Stop 02448,R-0146,24,23.068258,72.531542
S-002449,Stop 02449,R-0147,1,23.165184,72.635603
S-002450,Stop 02450,R-0147,2,23.147516,72.647829
S-002451,Stop 02451,R-0147,3,23.140671,72.653481
S-002452,Stop 02452,R-0147,4,23.130296,72.664151
S-002453,Stop 02453,R-0147,5,23.114688,72.677762
S-002454,Stop 02454,R-0147,6,23.10702,72.693076
S-002455,Stop 02455,R-0147,7,23.095389,72.701413
S-002456,Stop 02456,R-0147,8,23.076894,72.718509
S-002457,Stop 02457,R-0147,9,23.069608,72.730125
S-002458,Stop 02458,R-0147,10,23.062554,72.738124
S-002459,Stop 02459,R-0147,11,23.04611,72.756024
S-002460,Stop 02460,R-0147,12,23.031488,72.760484
S-002461,Stop 02461,R-0147,13,23.021692,72.771585
S-002462,Stop 02462,R-0147,14,23.011888,72.790255
S-002463,Stop 02463,R-0147,15,23.001755,72.798272
S-002464,Stop 02464,R-0147,16,22.991827,72.814666
S-002465,Stop 02465,R-0147,17,22.979887,72.820925
S-002466,Stop 02466,R-0147,18,22.966505,72.83754
S-002467,Stop 02467,R-0147,19,22.950699,72.845171
S-002468,Stop 02468,R-0147,20,22.942321,72.86097
S-002469,Stop 02469,R-0148,1,22.935576,72.600426
S-002470,Stop 02470,R-0148,2,22.94503,72.619984
S-002471,Stop 02471,R-0148,3,22.9443,72.636564
S-002472,Stop 02472,R-0148,4,22.944861,72.652437
S-002473,Stop 02473,R-0148,5,22.942532,72.66571
S-002474,Stop 02474,R-0148,6,22.948025,72.679949
S-002475,Stop 02475,R-0148,7,22.948883,72.702026
S-002476,Stop 02476,R-0148,8,22.951339,72.712161
S-002477,Stop 02477,R-0148,9,22.948824,72.72841
S-002478,Stop 02478,R-0148,10,22.954778,72.752454
S-002479,Stop 02479,R-0148,11,22.956192,72.761668
S-002480,Stop 02480,R-0149,1,22.97561,72.63098
S-002481,Stop 02481,R-0149,2,22.969916,72.61807
S-002482,Stop 02482,R-0149,3,22.970662,72.595478
S-002483,Stop 02483,R-0149,4,22.965204,72.579676
S-002484,Stop 02484,R-0149,5,22.959472,72.56677
S-002485,Stop 02485,R-0149,6,22.955334,72.547865
S-002486,Stop 02486,R-0149,7,22.953682,72.540939
S-002487,Stop 02487,R-0149,8,22.948448,72.523146
S-002488,Stop 02488,R-0150,1,23.045608,72.81549
S-002489,Stop 02489,R-0150,2,23.046701,72.797769
S-002490,Stop 02490,R-0150,3,23.041229,72.78148
S-002491,Stop 02491,R-0150,4,23.048999,72.774203
S-002492,Stop 02492,R-0150,5,23.042755,72.760154
S-002493,Stop 02493,R-0150,6,23.044469,72.743624
S-002494,Stop 02494,R-0150,7,23.043269,72.728087
S-002495,Stop 02495,R-0150,8,23.049999,72.719819
S-002496,Stop 02496,R-0150,9,23.044206,72.700977
S-002497,Stop 02497,R-0150,10,23.050792,72.686081
S-002498,Stop 02498,R-0150,11,23.053184,72.674769
S-002499,Stop 02499,R-0150,12,23.048487,72.661518
S-002500,Stop 02500,R-0150,13,23.050361,72.652128
S-002501,Stop 02501,R-0150,14,23.045944,72.636966
S-002502,Stop 02502,R-0150,15,23.054356,72.628641
S-002503,Stop 02503,R-0150,16,23.050172,72.60764
S-002504,Stop 02504,R-0150,17,23.050587,72.596372
S-002505,Stop 02505,R-0150,18,23.053278,72.57949
S-002506,Stop 02506,R-0150,19,23.053431,72.565902
S-002507,Stop 02507,R-0150,20,23.057727,72.556711
S-002508,Stop 02508,R-0150,21,23.052514,72.544686
S-002509,Stop 02509,R-0151,1,23.130022,72.846837
S-002510,Stop 02510,R-0151,2,23.123961,72.83112
S-002511,Stop 02511,R-0151,3,23.117047,72.802221
S-002512,Stop 02512,R-0151,4,23.10944,72.780863
S-002513,Stop 02513,R-0151,5,23.092495,72.761703
S-002514,Stop 02514,R-0151,6,23.085813,72.742949
S-002515,Stop 02515,R-0151,7,23.075749,72.720007
S-002516,Stop 02516,R-0151,8,23.068354,72.702993
S-002517,Stop 02517,R-0151,9,23.054039,72.68135
S-002518,Stop 02518,R-0152,1,23.020477,72.779173
S-002519,Stop 02519,R-0152,2,23.020713,72.781176
S-002520,Stop 02520,R-0152,3,23.024621,72.794729
S-002521,Stop 02521,R-0152,4,23.025371,72.802128
S-002522,Stop 02522,R-0152,5,23.034423,72.807133
S-002523,Stop 02523,R-0152,6,23.031932,72.811744
S-002524,Stop 02524,R-0152,7,23.037361,72.823138
S-002525,Stop 02525,R-0152,8,23.04191,72.831913
S-002526,Stop 02526,R-0152,9,23.044056,72.840854
S-002527,Stop 02527,R-0152,10,23.041645,72.844507
S-002528,Stop 02528,R-0152,11,23.040209,72.85258
S-002529,Stop 02529,R-0152,12,23.046783,72.860516
S-002530,Stop 02530,R-0153,1,22.919069,72.614958
S-002531,Stop 02531,R-0153,2,22.932083,72.61062
S-002532,Stop 02532,R-0153,3,22.934481,72.622509
S-002533,Stop 02533,R-0153,4,22.943874,72.625555
S-002534,Stop 02534,R-0153,5,22.955586,72.634501
S-002535,Stop 02535,R-0153,6,22.95647,72.631974
S-002536,Stop 02536,R-0153,7,22.97202,72.638052
S-002537,Stop 02537,R-0153,8,22.973127,72.646539
S-002538,Stop 02538,R-0153,9,22.982278,72.655567
S-002539,Stop 02539,R-0153,10,22.993512,72.6577
S-002540,Stop 02540,R-0153,11,23.005477,72.662331
S-002541,Stop 02541,R-0153,12,23.009575,72.666442
S-002542,Stop 02542,R-0153,13,23.012741,72.675167
S-002543,Stop 02543,R-0153,14,23.026847,72.681564
S-002544,Stop 02544,R-0153,15,23.028443,72.68471
S-002545,Stop 02545,R-0153,16,23.043096,72.687046
S-002546,Stop 02546,R-0153,17,23.050298,72.697823
S-002547,Stop 02547,R-0153,18,23.06087,72.695055
S-002548,Stop 02548,R-0153,19,23.061417,72.70703
S-002549,Stop 02549,R-0153,20,23.075307,72.708471
S-002550,Stop 02550,R-0153,21,23.086369,72.715079
S-002551,Stop 02551,R-0153,22,23.084981,72.724041
S-002552,Stop 02552,R-0154,1,23.034364,72.744486
S-002553,Stop 02553,R-0154,2,23.033393,72.74858
S-002554,Stop 02554,R-0154,3,23.026677,72.742955
S-002555,Stop 02555,R-0154,4,23.016407,72.749113
S-002556,Stop 02556,R-0154,5,23.014087,72.745067
S-002557,Stop 02557,R-0154,6,23.006498,72.755866
S-002558,Stop 02558,R-0154,7,23.00454,72.752171
S-002559,Stop 02559,R-0154,8,22.997441,72.759668
S-002560,Stop 02560,R-0154,9,22.999252,72.752745
S-002561,Stop 02561,R-0154,10,22.994055,72.755318
S-002562,Stop 02562,R-0154,11,22.988262,72.758373
S-002563,Stop 02563,R-0154,12,22.982928,72.7639
S-002564,Stop 02564,R-0154,13,22.971543,72.764103
S-002565,Stop 02565,R-0154,14,22.969596,72.769093
S-002566,Stop 02566,R-0154,15,22.963309,72.769715
S-002567,Stop 02567,R-0154,16,22.956456,72.771355
S-002568,Stop 02568,R-0154,17,22.958399,72.771662
S-002569,Stop 02569,R-0154,18,22.949909,72.777225
S-002570,Stop 02570,R-0154,19,22.944713,72.775837
S-002571,Stop 02571,R-0154,20,22.939114,72.779606
S-002572,Stop 02572,R-0154,21,22.937929,72.780015
S-002573,Stop 02573,R-0154,22,22.929095,72.779972
S-002574,Stop 02574,R-0155,1,23.116385,72.590742
S-002575,Stop 02575,R-0155,2,23.107918,72.588159
S-002576,Stop 02576,R-0155,3,23.098192,72.591663
S-002577,Stop 02577,R-0155,4,23.08623,72.589502
S-002578,Stop 02578,R-0155,5,23.071699,72.588385
S-002579,Stop 02579,R-0155,6,23.061553,72.592392
S-002580,Stop 02580,R-0155,7,23.053666,72.594892
S-002581,Stop 02581,R-0155,8,23.047407,72.588728
S-002582,Stop 02582,R-0155,9,23.032953,72.590674
S-002583,Stop 02583,R-0156,1,22.929036,72.674879
S-002584,Stop 02584,R-0156,2,22.950036,72.668189
S-002585,Stop 02585,R-0156,3,22.970408,72.665106
S-002586,Stop 02586,R-0156,4,22.994856,72.665964
S-002587,Stop 02587,R-0156,5,23.012584,72.661069
S-002588,Stop 02588,R-0156,6,23.038091,72.652752
S-002589,Stop 02589,R-0156,7,23.059186,72.654595
S-002590,Stop 02590,R-0156,8,23.081018,72.655772
S-002591,Stop 02591,R-0156,9,23.094985,72.648883
S-002592,Stop 02592,R-0157,1,23.147671,72.539533
S-002593,Stop 02593,R-0157,2,23.13832,72.552931
S-002594,Stop 02594,R-0157,3,23.12504,72.567984
S-002595,Stop 02595,R-0157,4,23.112358,72.588809
S-002596,Stop 02596,R-0157,5,23.091502,72.597631
S-002597,Stop 02597,R-0157,6,23.085428,72.615581
S-002598,Stop 02598,R-0157,7,23.068555,72.633465
S-002599,Stop 02599,R-0157,8,23.048215,72.649215
S-002600,Stop 02600,R-0157,9,23.034384,72.667963
S-002601,Stop 02601,R-0157,10,23.025067,72.681595
S-002602,Stop 02602,R-0157,11,23.013257,72.701126
S-002603,Stop 02603,R-0157,12,23.000154,72.71285
S-002604,Stop 02604,R-0157,13,22.987241,72.732129
S-002605,Stop 02605,R-0157,14,22.972231,72.751732
S-002606,Stop 02606,R-0157,15,22.95829,72.766286
S-002607,Stop 02607,R-0157,16,22.938631,72.77573
S-002608,Stop 02608,R-0157,17,22.925877,72.798678
S-002609,Stop 02609,R-0158,1,23.072066,72.62895
S-002610,Stop 02610,R-0158,2,23.059823,72.634092
S-002611,Stop 02611,R-0158,3,23.047556,72.634593
S-002612,Stop 02612,R-0158,4,23.040959,72.630978
S-002613,Stop 02613,R-0158,5,23.025929,72.63444
S-002614,Stop 02614,R-0158,6,23.017521,72.630761
S-002615,Stop 02615,R-0158,7,23.004303,72.632804
S-002616,Stop 02616,R-0158,8,22.999529,72.641656
S-002617,Stop 02617,R-0158,9,22.987079,72.641352
S-002618,Stop 02618,R-0158,10,22.978077,72.635504
S-002619,Stop 02619,R-0158,11,22.96778,72.642566
S-002620,Stop 02620,R-0158,12,22.952456,72.635044
S-002621,Stop 02621,R-0158,13,22.948112,72.642833
S-002622,Stop 02622,R-0158,14,22.941464,72.644925
S-002623,Stop 02623,R-0159,1,23.121308,72.882729
S-002624,Stop 02624,R-0159,2,23.113807,72.877213
S-002625,Stop 02625,R-0159,3,23.115548,72.871153
S-002626,Stop 02626,R-0159,4,23.115844,72.860198
S-002627,Stop 02627,R-0159,5,23.107605,72.841849
S-002628,Stop 02628,R-0159,6,23.103968,72.836727
S-002629,Stop 02629,R-0159,7,23.107802,72.823362
S-002630,Stop 02630,R-0159,8,23.107244,72.819296
S-002631,Stop 02631,R-0159,9,23.100422,72.806352
S-002632,Stop 02632,R-0159,10,23.104207,72.794329
S-002633,Stop 02633,R-0159,11,23.100599,72.78118
S-002634,Stop 02634,R-0159,12,23.101991,72.77398
S-002635,Stop 02635,R-0159,13,23.097602,72.764085
S-002636,Stop 02636,R-0159,14,23.097589,72.755579
S-002637,Stop 02637,R-0159,15,23.099422,72.746985
S-002638,Stop 02638,R-0159,16,23.095848,72.732856
S-002639,Stop 02639,R-0159,17,23.09602,72.725122
S-002640,Stop 02640,R-0159,18,23.089584,72.711781
S-002641,Stop 02641,R-0159,19,23.093584,72.703858
S-002642,Stop 02642,R-0159,20,23.086266,72.691777
S-002643,Stop 02643,R-0159,21,23.090865,72.678395
S-002644,Stop 02644,R-0159,22,23.081719,72.673403
S-002645,Stop 02645,R-0159,23,23.079001,72.661045
S-002646,Stop 02646,R-0159,24,23.078364,72.6475
S-002647,Stop 02647,R-0159,25,23.080045,72.643593
S-002648,Stop 02648,R-0160,1,22.96531,72.540381
S-002649,Stop 02649,R-0160,2,22.971213,72.543184
S-002650,Stop 02650,R-0160,3,22.988022,72.551288
S-002651,Stop 02651,R-0160,4,22.989269,72.560712
S-002652,Stop 02652,R-0160,5,23.005097,72.557468
S-002653,Stop 02653,R-0160,6,23.005259,72.56617
S-002654,Stop 02654,R-0160,7,23.019268,72.567786
S-002655,Stop 02655,R-0160,8,23.023804,72.573872
S-002656,Stop 02656,R-0160,9,23.033436,72.579562
S-002657,Stop 02657,R-0160,10,23.038969,72.589502
S-002658,Stop 02658,R-0160,11,23.049647,72.586952
S-002659,Stop 02659,R-0160,12,23.062344,72.595309
S-002660,Stop 02660,R-0160,13,23.070607,72.601935
S-002661,Stop 02661,R-0160,14,23.081649,72.603964
S-002662,Stop 02662,R-0160,15,23.085424,72.612717
S-002663,Stop 02663,R-0160,16,23.090432,72.610076
S-002664,Stop 02664,R-0160,17,23.103898,72.621554
S-002665,Stop 02665,R-0160,18,23.115736,72.626684
S-002666,Stop 02666,R-0160,19,23.115152,72.624217
S-002667,Stop 02667,R-0160,20,23.129501,72.636587
S-002668,Stop 02668,R-0160,21,23.140782,72.634164
S-002669,Stop 02669,R-0160,22,23.143063,72.641724
S-002670,Stop 02670,R-0160,23,23.153671,72.64935
S-002671,Stop 02671,R-0161,1,23.15009,72.888456
S-002672,Stop 02672,R-0161,2,23.155937,72.87161
S-002673,Stop 02673,R-0161,3,23.148962,72.865637
S-002674,Stop 02674,R-0161,4,23.153833,72.841568
S-002675,Stop 02675,R-0161,5,23.153688,72.8318
S-002676,Stop 02676,R-0161,6,23.147405,72.814337
S-002677,Stop 02677,R-0161,7,23.146396,72.805337
S-002678,Stop 02678,R-0161,8,23.147084,72.79004
S-002679,Stop 02679,R-0161,9,23.144586,72.776839
S-002680,Stop 02680,R-0161,10,23.146626,72.76274
S-002681,Stop 02681,R-0161,11,23.141908,72.744717
S-002682,Stop 02682,R-0162,1,23.152819,72.611497
S-002683,Stop 02683,R-0162,2,23.139264,72.617506
S-002684,Stop 02684,R-0162,3,23.133804,72.623815
S-002685,Stop 02685,R-0162,4,23.122333,72.63527
S-002686,Stop 02686,R-0162,5,23.110069,72.637495
S-002687,Stop 02687,R-0162,6,23.098543,72.649521
S-002688,Stop 02688,R-0162,7,23.093148,72.65855
S-002689,Stop 02689,R-0162,8,23.079621,72.663285
S-002690,Stop 02690,R-0162,9,23.075178,72.673129
S-002691,Stop 02691,R-0162,10,23.061963,72.690102
S-002692,Stop 02692,R-0162,11,23.056282,72.69702
S-002693,Stop 02693,R-0162,12,23.045504,72.707461
S-002694,Stop 02694,R-0162,13,23.031203,72.715297
S-002695,Stop 02695,R-0162,14,23.024282,72.72388
S-002696,Stop 02696,R-0162,15,23.014754,72.726987
S-002697,Stop 02697,R-0162,16,23.001245,72.740825
S-002698,Stop 02698,R-0162,17,22.99707,72.747364
S-002699,Stop 02699,R-0162,18,22.979801,72.754004
S-002700,Stop 02700,R-0162,19,22.975035,72.767546
S-002701,Stop 02701,R-0162,20,22.965104,72.773557
S-002702,Stop 02702,R-0162,21,22.953546,72.779533
S-002703,Stop 02703,R-0163,1,23.163713,72.730338
S-002704,Stop 02704,R-0163,2,23.149395,72.717967
S-002705,Stop 02705,R-0163,3,23.145046,72.710845
S-002706,Stop 02706,R-0163,4,23.142538,72.699926
S-002707,Stop 02707,R-0163,5,23.131741,72.687923
S-002708,Stop 02708,R-0163,6,23.124043,72.679972
S-002709,Stop 02709,R-0163,7,23.114927,72.674271
S-002710,Stop 02710,R-0163,8,23.104348,72.667881
S-002711,Stop 02711,R-0163,9,23.102106,72.652629
S-002712,Stop 02712,R-0163,10,23.097623,72.644146
S-002713,Stop 02713,R-0163,11,23.086121,72.637224
S-002714,Stop 02714,R-0163,12,23.081807,72.631651
S-002715,Stop 02715,R-0163,13,23.069678,72.619375
S-002716,Stop 02716,R-0163,14,23.060912,72.61293
S-002717,Stop 02717,R-0163,15,23.061681,72.600916
S-002718,Stop 02718,R-0163,16,23.050585,72.587545
S-002719,Stop 02719,R-0163,17,23.040844,72.580918
S-002720,Stop 02720,R-0163,18,23.037506,72.575437
S-002721,Stop 02721,R-0163,19,23.029788,72.570061
S-002722,Stop 02722,R-0163,20,23.02189,72.560195
S-002723,Stop 02723,R-0164,1,22.963043,72.665778
S-002724,Stop 02724,R-0164,2,22.970083,72.668659
S-002725,Stop 02725,R-0164,3,22.971654,72.667232
S-002726,Stop 02726,R-0164,4,22.972821,72.661142
S-002727,Stop 02727,R-0164,5,22.973598,72.663068
S-002728,Stop 02728,R-0164,6,22.981243,72.659434
S-002729,Stop 02729,R-0164,7,22.976689,72.661516
S-002730,Stop 02730,R-0164,8,22.986689,72.653796
S-002731,Stop 02731,R-0164,9,22.981721,72.66044
S-002732,Stop 02732,R-0164,10,22.988557,72.654594
S-002733,Stop 02733,R-0164,11,22.990182,72.653973
S-002734,Stop 02734,R-0164,12,22.995067,72.652477
S-002735,Stop 02735,R-0164,13,22.995827,72.648503
S-002736,Stop 02736,R-0164,14,22.999562,72.648678
S-002737,Stop 02737,R-0164,15,23.00167,72.652331
S-002738,Stop 02738,R-0165,1,22.927804,72.520213
S-002739,Stop 02739,R-0165,2,22.923103,72.531379
S-002740,Stop 02740,R-0165,3,22.927311,72.541175
S-002741,Stop 02741,R-0165,4,22.933131,72.552006
S-002742,Stop 02742,R-0165,5,22.92973,72.564096
S-002743,Stop 02743,R-0165,6,22.929981,72.567754
S-002744,Stop 02744,R-0165,7,22.927983,72.583295
S-002745,Stop 02745,R-0165,8,22.93662,72.58917
S-002746,Stop 02746,R-0165,9,22.936914,72.599362
S-002747,Stop 02747,R-0165,10,22.933075,72.611432
S-002748,Stop 02748,R-0165,11,22.935595,72.61999
S-002749,Stop 02749,R-0165,12,22.934404,72.632834
S-002750,Stop 02750,R-0165,13,22.935283,72.639646
S-002751,Stop 02751,R-0165,14,22.93476,72.657481
S-002752,Stop 02752,R-0165,15,22.938537,72.669288
S-002753,Stop 02753,R-0165,16,22.938359,72.673032
S-002754,Stop 02754,R-0165,17,22.938126,72.68787
S-002755,Stop 02755,R-0165,18,22.937304,72.696226
S-002756,Stop 02756,R-0165,19,22.938947,72.701474
S-002757,Stop 02757,R-0165,20,22.944071,72.714401
S-002758,Stop 02758,R-0165,21,22.944771,72.72496
S-002759,Stop 02759,R-0165,22,22.945008,72.740203
S-002760,Stop 02760,R-0165,23,22.95056,72.743463
S-002761,Stop 02761,R-0166,1,23.045747,72.676427
S-002762,Stop 02762,R-0166,2,23.039403,72.687687
S-002763,Stop 02763,R-0166,3,23.037772,72.697826
S-002764,Stop 02764,R-0166,4,23.031311,72.712597
S-002765,Stop 02765,R-0166,5,23.021614,72.719659
S-002766,Stop 02766,R-0166,6,23.015676,72.734118
S-002767,Stop 02767,R-0166,7,23.015508,72.748987
S-002768,Stop 02768,R-0166,8,23.007491,72.757924
S-002769,Stop 02769,R-0166,9,23.002996,72.769915
S-002770,Stop 02770,R-0166,10,22.994261,72.782182
S-002771,Stop 02771,R-0166,11,22.989819,72.791209
S-002772,Stop 02772,R-0166,12,22.978188,72.802571
S-002773,Stop 02773,R-0167,1,23.108098,72.695071
S-002774,Stop 02774,R-0167,2,23.10586,72.68565
S-002775,Stop 02775,R-0167,3,23.10324,72.670007
S-002776,Stop 02776,R-0167,4,23.102786,72.649112
S-002777,Stop 02777,R-0167,5,23.104081,72.640668
S-002778,Stop 02778,R-0167,6,23.10686,72.624523
S-002779,Stop 02779,R-0167,7,23.099032,72.616495
S-002780,Stop 02780,R-0167,8,23.105101,72.600418
S-002781,Stop 02781,R-0167,9,23.097296,72.586382
S-002782,Stop 02782,R-0167,10,23.099392,72.573359
S-002783,Stop 02783,R-0167,11,23.100841,72.563233
S-002784,Stop 02784,R-0167,12,23.099064,72.542124
S-002785,Stop 02785,R-0167,13,23.095643,72.532022
S-002786,Stop 02786,R-0167,14,23.09896,72.514077
S-002787,Stop 02787,R-0168,1,22.990844,72.582348
S-002788,Stop 02788,R-0168,2,22.982327,72.588948
S-002789,Stop 02789,R-0168,3,22.977117,72.592558
S-002790,Stop 02790,R-0168,4,22.977435,72.585397
S-002791,Stop 02791,R-0168,5,22.975335,72.588394
S-002792,Stop 02792,R-0168,6,22.967931,72.591331
S-002793,Stop 02793,R-0168,7,22.95686,72.591547
S-002794,Stop 02794,R-0168,8,22.959877,72.594473
S-002795,Stop 02795,R-0168,9,22.955437,72.60266
S-002796,Stop 02796,R-0168,10,22.941614,72.597833
S-002797,Stop 02797,R-0168,11,22.94214,72.599573
S-002798,Stop 02798,R-0169,1,22.955232,72.650933
S-002799,Stop 02799,R-0169,2,22.955745,72.649777
S-002800,Stop 02800,R-0169,3,22.96613,72.65533
S-002801,Stop 02801,R-0169,4,22.97321,72.657422
S-002802,Stop 02802,R-0169,5,22.977592,72.664296
S-002803,Stop 02803,R-0169,6,22.984833,72.667157
S-002804,Stop 02804,R-0169,7,22.995779,72.662074
S-002805,Stop 02805,R-0169,8,23.001462,72.669551
S-002806,Stop 02806,R-0169,9,23.005847,72.667854
S-002807,Stop 02807,R-0169,10,23.010527,72.672232
S-002808,Stop 02808,R-0169,11,23.018609,72.677641
S-002809,Stop 02809,R-0169,12,23.027194,72.679903
S-002810,Stop 02810,R-0169,13,23.038168,72.677513
S-002811,Stop 02811,R-0169,14,23.041472,72.683341
S-002812,Stop 02812,R-0169,15,23.048639,72.676324
S-002813,Stop 02813,R-0169,16,23.055654,72.686695
S-002814,Stop 02814,R-0169,17,23.060787,72.69021
S-002815,Stop 02815,R-0169,18,23.064787,72.691913
S-002816,Stop 02816,R-0169,19,23.07649,72.690644
S-002817,Stop 02817,R-0169,20,23.086949,72.690555
S-002818,Stop 02818,R-0169,21,23.088955,72.695163
S-002819,Stop 02819,R-0169,22,23.098179,72.696032
S-002820,Stop 02820,R-0169,23,23.099669,72.700409
S-002821,Stop 02821,R-0169,24,23.111732,72.698111
S-002822,Stop 02822,R-0170,1,23.160513,72.520226
S-002823,Stop 02823,R-0170,2,23.147469,72.540412
S-002824,Stop 02824,R-0170,3,23.13569,72.551034
S-002825,Stop 02825,R-0170,4,23.118645,72.575449
S-002826,Stop 02826,R-0170,5,23.109125,72.595384
S-002827,Stop 02827,R-0170,6,23.093326,72.614229
S-002828,Stop 02828,R-0170,7,23.080741,72.625665
S-002829,Stop 02829,R-0170,8,23.066976,72.644654
S-002830,Stop 02830,R-0170,9,23.049148,72.669529
S-002831,Stop 02831,R-0170,10,23.037016,72.687582
S-002832,Stop 02832,R-0170,11,23.021757,72.706167
S-002833,Stop 02833,R-0170,12,23.013197,72.715489
S-002834,Stop 02834,R-0170,13,22.993894,72.735684
S-002835,Stop 02835,R-0170,14,22.986045,72.759416
S-002836,Stop 02836,R-0170,15,22.972066,72.774881
S-002837,Stop 02837,R-0170,16,22.954677,72.798223
S-002838,Stop 02838,R-0170,17,22.947067,72.813345
S-002839,Stop 02839,R-0170,18,22.93617,72.834621
S-002840,Stop 02840,R-0170,19,22.918385,72.846197
S-002841,Stop 02841,R-0170,20,22.910342,72.867229
S-002842,Stop 02842,R-0171,1,23.111718,72.670469
S-002843,Stop 02843,R-0171,2,23.106063,72.663097
S-002844,Stop 02844,R-0171,3,23.089287,72.648146
S-002845,Stop 02845,R-0171,4,23.080064,72.635716
S-002846,Stop 02846,R-0171,5,23.07566,72.634388
S-002847,Stop 02847,R-0171,6,23.065128,72.625077
S-002848,Stop 02848,R-0171,7,23.050332,72.617329
S-002849,Stop 02849,R-0171,8,23.044764,72.608432
S-002850,Stop 02850,R-0171,9,23.030818,72.60133
S-002851,Stop 02851,R-0171,10,23.028374,72.583078
S-002852,Stop 02852,R-0171,11,23.013724,72.580932
S-002853,Stop 02853,R-0171,12,23.00495,72.565145
S-002854,Stop 02854,R-0171,13,22.998827,72.562639
S-002855,Stop 02855,R-0171,14,22.980189,72.55021
S-002856,Stop 02856,R-0171,15,22.974177,72.540322
S-002857,Stop 02857,R-0171,16,22.961206,72.537187
S-002858,Stop 02858,R-0171,17,22.956085,72.52701
S-002859,Stop 02859,R-0171,18,22.941213,72.518043
S-002860,Stop 02860,R-0171,19,22.937012,72.504617
S-002861,Stop 02861,R-0172,1,23.153418,72.870197
S-002862,Stop 02862,R-0172,2,23.131411,72.869234
S-002863,Stop 02863,R-0172,3,23.112958,72.868304
S-002864,Stop 02864,R-0172,4,23.103563,72.8626
S-002865,Stop 02865,R-0172,5,23.087652,72.863135
S-002866,Stop 02866,R-0172,6,23.064924,72.856424
S-002867,Stop 02867,R-0172,7,23.055695,72.856502
S-002868,Stop 02868,R-0172,8,23.041562,72.851081
S-002869,Stop 02869,R-0172,9,23.025526,72.849769
S-002870,Stop 02870,R-0172,10,23.002359,72.848732
S-002871,Stop 02871,R-0172,11,22.990157,72.846571
S-002872,Stop 02872,R-0172,12,22.969696,72.846459
S-002873,Stop 02873,R-0172,13,22.95379,72.84628
S-002874,Stop 02874,R-0172,14,22.942704,72.838107
S-002875,Stop 02875,R-0172,15,22.925358,72.836141
S-002876,Stop 02876,R-0173,1,23.023633,72.621366
S-002877,Stop 02877,R-0173,2,23.018215,72.62999
S-002878,Stop 02878,R-0173,3,23.018078,72.623684
S-002879,Stop 02879,R-0173,4,23.00979,72.623646
S-002880,Stop 02880,R-0173,5,23.01034,72.624598
S-002881,Stop 02881,R-0173,6,23.005995,72.625862
S-002882,Stop 02882,R-0173,7,23.007237,72.636275
S-002883,Stop 02883,R-0173,8,23.005259,72.630699
S-002884,Stop 02884,R-0174,1,23.05037,72.860777
S-002885,Stop 02885,R-0174,2,23.046341,72.857459
S-002886,Stop 02886,R-0174,3,23.051548,72.860312
S-002887,Stop 02887,R-0174,4,23.049174,72.853826
S-002888,Stop 02888,R-0174,5,23.046868,72.850638
S-002889,Stop 02889,R-0174,6,23.042827,72.841993
S-002890,Stop 02890,R-0174,7,23.035455,72.838225
S-002891,Stop 02891,R-0174,8,23.035791,72.843122
S-002892,Stop 02892,R-0174,9,23.031119,72.832675
S-002893,Stop 02893,R-0174,10,23.03747,72.832572
S-002894,Stop 02894,R-0174,11,23.029104,72.831169
S-002895,Stop 02895,R-0174,12,23.024557,72.828436
S-002896,Stop 02896,R-0174,13,23.027302,72.821363
S-002897,Stop 02897,R-0174,14,23.023335,72.816126
S-002898,Stop 02898,R-0174,15,23.02485,72.814253
S-002899,Stop 02899,R-0174,16,23.021137,72.815273
S-002900,Stop 02900,R-0174,17,23.013057,72.809269
S-002901,Stop 02901,R-0174,18,23.018713,72.810983
S-002902,Stop 02902,R-0174,19,23.014764,72.802333
S-002903,Stop 02903,R-0174,20,23.015758,72.80352
S-002904,Stop 02904,R-0174,21,23.008733,72.795726
S-002905,Stop 02905,R-0174,22,23.003927,72.790225
S-002906,Stop 02906,R-0174,23,23.005765,72.786627
S-002907,Stop 02907,R-0175,1,22.947977,72.575169
S-002908,Stop 02908,R-0175,2,22.954544,72.594784
S-002909,Stop 02909,R-0175,3,22.964791,72.61476
S-002910,Stop 02910,R-0175,4,22.972358,72.62725
S-002911,Stop 02911,R-0175,5,22.981462,72.644471
S-002912,Stop 02912,R-0175,6,22.997389,72.665647
S-002913,Stop 02913,R-0175,7,23.008583,72.681414
S-002914,Stop 02914,R-0175,8,23.018424,72.70057
S-002915,Stop 02915,R-0175,9,23.024566,72.717175
S-002916,Stop 02916,R-0175,10,23.039665,72.732711
S-002917,Stop 02917,R-0175,11,23.053856,72.752299
S-002918,Stop 02918,R-0175,12,23.061253,72.765889
S-002919,Stop 02919,R-0175,13,23.067572,72.789957
S-002920,Stop 02920,R-0175,14,23.081314,72.799632
S-002921,Stop 02921,R-0176,1,23.045189,72.798782
S-002922,Stop 02922,R-0176,2,23.056749,72.797841
S-002923,Stop 02923,R-0176,3,23.055509,72.789877
S-002924,Stop 02924,R-0176,4,23.063471,72.786228
S-002925,Stop 02925,R-0176,5,23.06695,72.77293
S-002926,Stop 02926,R-0176,6,23.071166,72.77246
S-002927,Stop 02927,R-0176,7,23.075972,72.760226
S-002928,Stop 02928,R-0176,8,23.075863,72.753793
S-002929,Stop 02929,R-0176,9,23.086562,72.742882
S-002930,Stop 02930,R-0176,10,23.085293,72.735707
S-002931,Stop 02931,R-0176,11,23.089759,72.731183
S-002932,Stop 02932,R-0176,12,23.098197,72.724481
S-002933,Stop 02933,R-0176,13,23.103733,72.724827
S-002934,Stop 02934,R-0176,14,23.104131,72.715912
S-002935,Stop 02935,R-0176,15,23.107299,72.703564
S-002936,Stop 02936,R-0176,16,23.119574,72.69856
S-002937,Stop 02937,R-0176,17,23.114842,72.688442
S-002938,Stop 02938,R-0176,18,23.119686,72.684258
S-002939,Stop 02939,R-0176,19,23.124907,72.680419
S-002940,Stop 02940,R-0177,1,23.082796,72.840996
S-002941,Stop 02941,R-0177,2,23.08438,72.82659
S-002942,Stop 02942,R-0177,3,23.091301,72.816186
S-002943,Stop 02943,R-0177,4,23.08589,72.798691
S-002944,Stop 02944,R-0177,5,23.084322,72.77751
S-002945,Stop 02945,R-0177,6,23.09101,72.770551
S-002946,Stop 02946,R-0177,7,23.082836,72.752368
S-002947,Stop 02947,R-0177,8,23.08646,72.737617
S-002948,Stop 02948,R-0177,9,23.083826,72.723253
S-002949,Stop 02949,R-0177,10,23.085812,72.700442
S-002950,Stop 02950,R-0177,11,23.090901,72.688799
S-002951,Stop 02951,R-0177,12,23.092262,72.67611
S-002952,Stop 02952,R-0177,13,23.092873,72.659305
S-002953,Stop 02953,R-0177,14,23.091724,72.635291
S-002954,Stop 02954,R-0177,15,23.08443,72.628028
S-002955,Stop 02955,R-0177,16,23.090979,72.604852
S-002956,Stop 02956,R-0177,17,23.086857,72.590827
S-002957,Stop 02957,R-0177,18,23.089116,72.581004
S-002958,Stop 02958,R-0177,19,23.08561,72.555845
S-002959,Stop 02959,R-0178,1,22.985946,72.520411
S-002960,Stop 02960,R-0178,2,22.984257,72.527763
S-002961,Stop 02961,R-0178,3,22.994435,72.535915
S-002962,Stop 02962,R-0178,4,22.994774,72.54602
S-002963,Stop 02963,R-0178,5,23.004719,72.553649
S-002964,Stop 02964,R-0178,6,23.011521,72.564429
S-002965,Stop 02965,R-0178,7,23.017527,72.570554
S-002966,Stop 02966,R-0178,8,23.01666,72.576108
S-002967,Stop 02967,R-0178,9,23.029179,72.587561
S-002968,Stop 02968,R-0178,10,23.029467,72.593061
S-002969,Stop 02969,R-0178,11,23.032884,72.60282
S-002970,Stop 02970,R-0178,12,23.041717,72.608351
S-002971,Stop 02971,R-0178,13,23.051389,72.616078
S-002972,Stop 02972,R-0178,14,23.053013,72.625544
S-002973,Stop 02973,R-0179,1,22.920091,72.849649
S-002974,Stop 02974,R-0179,2,22.951736,72.830582
S-002975,Stop 02975,R-0179,3,22.978597,72.820026
S-002976,Stop 02976,R-0179,4,23.009378,72.804886
S-002977,Stop 02977,R-0179,5,23.043228,72.793397
S-002978,Stop 02978,R-0179,6,23.064847,72.785906
S-002979,Stop 02979,R-0179,7,23.096146,72.771115
S-002980,Stop 02980,R-0179,8,23.124694,72.753877
S-002981,Stop 02981,R-0179,9,23.156711,72.744367
S-002982,Stop 02982,R-0180,1,23.137221,72.857441
S-002983,Stop 02983,R-0180,2,23.135703,72.854882
S-002984,Stop 02984,R-0180,3,23.126595,72.851868
S-002985,Stop 02985,R-0180,4,23.120222,72.854887
S-002986,Stop 02986,R-0180,5,23.116588,72.847618
S-002987,Stop 02987,R-0180,6,23.116537,72.850282
S-002988,Stop 02988,R-0180,7,23.10966,72.851374
S-002989,Stop 02989,R-0180,8,23.107603,72.84286
S-002990,Stop 02990,R-0180,9,23.094163,72.84062
S-002991,Stop 02991,R-0180,10,23.090566,72.840564
S-002992,Stop 02992,R-0180,11,23.086968,72.839985
S-002993,Stop 02993,R-0180,12,23.086945,72.842154
S-002994,Stop 02994,R-0180,13,23.076647,72.840736
S-002995,Stop 02995,R-0180,14,23.078995,72.842024
S-002996,Stop 02996,R-0180,15,23.071652,72.837799
S-002997,Stop 02997,R-0180,16,23.068365,72.828847
S-002998,Stop 02998,R-0180,17,23.057349,72.835346
S-002999,Stop 02999,R-0180,18,23.057299,72.829521
S-003000,Stop 03000,R-0180,19,23.048638,72.829643
S-003001,Stop 03001,R-0180,20,23.046247,72.826925
S-003002,Stop 03002,R-0180,21,23.039933,72.828177
S-003003,Stop 03003,R-0180,22,23.031413,72.822901
S-003004,Stop 03004,R-0181,1,22.947491,72.521848
S-003005,Stop 03005,R-0181,2,22.94158,72.549541
S-003006,Stop 03006,R-0181,3,22.943755,72.57228
S-003007,Stop 03007,R-0181,4,22.945358,72.59492
S-003008,Stop 03008,R-0181,5,22.937058,72.623893
S-003009,Stop 03009,R-0181,6,22.939472,72.648776
S-003010,Stop 03010,R-0181,7,22.938346,72.667665
S-003011,Stop 03011,R-0181,8,22.941684,72.687501
S-003012,Stop 03012,R-0181,9,22.933529,72.719859
S-003013,Stop 03013,R-0181,10,22.934181,72.742421
S-003014,Stop 03014,R-0181,11,22.935108,72.765553
S-003015,Stop 03015,R-0181,12,22.932642,72.785141
S-003016,Stop 03016,R-0181,13,22.932338,72.814334
S-003017,Stop 03017,R-0181,14,22.934694,72.837635
S-003018,Stop 03018,R-0181,15,22.929047,72.860521
S-003019,Stop 03019,R-0182,1,22.955989,72.595634
S-003020,Stop 03020,R-0182,2,22.966239,72.606984
S-003021,Stop 03021,R-0182,3,22.972956,72.619295
S-003022,Stop 03022,R-0182,4,22.982681,72.631518
S-003023,Stop 03023,R-0182,5,22.996349,72.634475
S-003024,Stop 03024,R-0182,6,23.000399,72.647362
S-003025,Stop 03025,R-0182,7,23.008321,72.652687
S-003026,Stop 03026,R-0182,8,23.022077,72.6657
S-003027,Stop 03027,R-0182,9,23.035274,72.671701
S-003028,Stop 03028,R-0183,1,22.986617,72.660284
S-003029,Stop 03029,R-0183,2,22.989797,72.672106
S-003030,Stop 03030,R-0183,3,22.983465,72.675627
S-003031,Stop 03031,R-0183,4,22.993974,72.685061
S-003032,Stop 03032,R-0183,5,22.988584,72.691677
S-003033,Stop 03033,R-0183,6,22.993433,72.700878
S-003034,Stop 03034,R-0183,7,22.99354,72.704006
S-003035,Stop 03035,R-0183,8,22.994785,72.720558
S-003036,Stop 03036,R-0183,9,22.997093,72.728921
S-003037,Stop 03037,R-0183,10,22.996137,72.730774
S-003038,Stop 03038,R-0183,11,23.003941,72.738044
S-003039,Stop 03039,R-0184,1,22.924651,72.768409
S-003040,Stop 03040,R-0184,2,22.93205,72.774844
S-003041,Stop 03041,R-0184,3,22.936852,72.77518
S-003042,Stop 03042,R-0184,4,22.945872,72.776413
S-003043,Stop 03043,R-0184,5,22.945882,72.778782
S-003044,Stop 03044,R-0184,6,22.947988,72.773404
S-003045,Stop 03045,R-0184,7,22.951037,72.775364
S-003046,Stop 03046,R-0184,8,22.957979,72.784196
S-003047,Stop 03047,R-0184,9,22.963621,72.786619
S-003048,Stop 03048,R-0184,10,22.971531,72.783513
S-003049,Stop 03049,R-0184,11,22.972876,72.78768
S-003050,Stop 03050,R-0184,12,22.974371,72.790512
S-003051,Stop 03051,R-0184,13,22.980431,72.790101
S-003052,Stop 03052,R-0184,14,22.98736,72.787467
S-003053,Stop 03053,R-0185,1,22.99916,72.729892
S-003054,Stop 03054,R-0185,2,22.996388,72.724653
S-003055,Stop 03055,R-0185,3,22.989259,72.719159
S-003056,Stop 03056,R-0185,4,22.987599,72.705759
S-003057,Stop 03057,R-0185,5,22.982802,72.697477
S-003058,Stop 03058,R-0185,6,22.979873,72.690855
S-003059,Stop 03059,R-0185,7,22.975045,72.686889
S-003060,Stop 03060,R-0185,8,22.968087,72.674415
S-003061,Stop 03061,R-0185,9,22.963888,72.675006
S-003062,Stop 03062,R-0185,10,22.960911,72.662333
S-003063,Stop 03063,R-0185,11,22.954644,72.651668
S-003064,Stop 03064,R-0185,12,22.945915,72.650246
S-003065,Stop 03065,R-0185,13,22.942473,72.642723
S-003066,Stop 03066,R-0186,1,23.078021,72.872729
S-003067,Stop 03067,R-0186,2,23.074291,72.863596
S-003068,Stop 03068,R-0186,3,23.06568,72.854693
S-003069,Stop 03069,R-0186,4,23.068164,72.840333
S-003070,Stop 03070,R-0186,5,23.063844,72.833853
S-003071,Stop 03071,R-0186,6,23.056069,72.814176
S-003072,Stop 03072,R-0186,7,23.048968,72.812014
S-003073,Stop 03073,R-0186,8,23.04681,72.799103
S-003074,Stop 03074,R-0186,9,23.044105,72.781072
S-003075,Stop 03075,R-0186,10,23.04046,72.771586
S-003076,Stop 03076,R-0186,11,23.040194,72.759339
S-003077,Stop 03077,R-0186,12,23.034616,72.755126
S-003078,Stop 03078,R-0186,13,23.023836,72.735664
S-003079,Stop 03079,R-0186,14,23.018853,72.727199
S-003080,Stop 03080,R-0186,15,23.018913,72.716939
S-003081,Stop 03081,R-0186,16,23.01006,72.70944
S-003082,Stop 03082,R-0186,17,23.011776,72.692113
S-003083,Stop 03083,R-0186,18,23.004301,72.681518
S-003084,Stop 03084,R-0186,19,22.996783,72.674875
S-003085,Stop 03085,R-0186,20,22.994319,72.663866
S-003086,Stop 03086,R-0186,21,22.99624,72.653787
S-003087,Stop 03087,R-0187,1,23.147594,72.793593
S-003088,Stop 03088,R-0187,2,23.139906,72.782061
S-003089,Stop 03089,R-0187,3,23.142799,72.781191
S-003090,Stop 03090,R-0187,4,23.140057,72.768771
S-003091,Stop 03091,R-0187,5,23.128848,72.757443
S-003092,Stop 03092,R-0187,6,23.126373,72.757926
S-003093,Stop 03093,R-0187,7,23.121221,72.74146
S-003094,Stop 03094,R-0187,8,23.120233,72.733249
S-003095,Stop 03095,R-0187,9,23.11806,72.730517
S-003096,Stop 03096,R-0187,10,23.113235,72.715731
S-003097,Stop 03097,R-0187,11,23.102294,72.709714
S-003098,Stop 03098,R-0188,1,23.011935,72.570332
S-003099,Stop 03099,R-0188,2,23.005595,72.604048
S-003100,Stop 03100,R-0188,3,23.004218,72.632448
S-003101,Stop 03101,R-0188,4,22.994702,72.661518
S-003102,Stop 03102,R-0188,5,22.987029,72.693123
S-003103,Stop 03103,R-0188,6,22.981668,72.727126
S-003104,Stop 03104,R-0188,7,22.977186,72.75341
S-003105,Stop 03105,R-0188,8,22.974815,72.788558
S-003106,Stop 03106,R-0188,9,22.970947,72.818914
S-003107,Stop 03107,R-0188,10,22.964149,72.852225
S-003108,Stop 03108,R-0188,11,22.963369,72.881742
S-003109,Stop 03109,R-0189,1,22.927981,72.833789
S-003110,Stop 03110,R-0189,2,22.923839,72.841339
S-003111,Stop 03111,R-0189,3,22.927308,72.831811
S-003112,Stop 03112,R-0189,4,22.928721,72.834758
S-003113,Stop 03113,R-0189,5,22.929272,72.834385
S-003114,Stop 03114,R-0189,6,22.926564,72.835808
S-003115,Stop 03115,R-0189,7,22.927049,72.828068
S-003116,Stop 03116,R-0189,8,22.926792,72.832249
S-003117,Stop 03117,R-0189,9,22.923945,72.830588
S-003118,Stop 03118,R-0189,10,22.925913,72.824086
S-003119,Stop 03119,R-0189,11,22.927504,72.825248
S-003120,Stop 03120,R-0189,12,22.92557,72.824466
S-003121,Stop 03121,R-0189,13,22.924397,72.822598
S-003122,Stop 03122,R-0189,14,22.932284,72.817712
S-003123,Stop 03123,R-0189,15,22.92889,72.823016
S-003124,Stop 03124,R-0189,16,22.926142,72.82009
S-003125,Stop 03125,R-0189,17,22.930953,72.817572
S-003126,Stop 03126,R-0189,18,22.924307,72.813782
S-003127,Stop 03127,R-0189,19,22.927001,72.810216
S-003128,Stop 03128,R-0189,20,22.926405,72.807741
S-003129,Stop 03129,R-0189,21,22.933922,72.812005
S-003130,Stop 03130,R-0189,22,22.934474,72.81208
S-003131,Stop 03131,R-0189,23,22.928629,72.806131
S-003132,Stop 03132,R-0190,1,23.001238,72.811299
S-003133,Stop 03133,R-0190,2,22.994795,72.784928
S-003134,Stop 03134,R-0190,3,22.980837,72.771034
S-003135,Stop 03135,R-0190,4,22.976199,72.745507
S-003136,Stop 03136,R-0190,5,22.970565,72.732672
S-003137,Stop 03137,R-0190,6,22.964108,72.70661
S-003138,Stop 03138,R-0190,7,22.956617,72.691842
S-003139,Stop 03139,R-0190,8,22.94811,72.668982
S-003140,Stop 03140,R-0190,9,22.937531,72.650112
S-003141,Stop 03141,R-0191,1,23.138359,72.566132
S-003142,Stop 03142,R-0191,2,23.131334,72.575755
S-003143,Stop 03143,R-0191,3,23.115801,72.598635
S-003144,Stop 03144,R-0191,4,23.091221,72.605007
S-003145,Stop 03145,R-0191,5,23.079538,72.625241
S-003146,Stop 03146,R-0191,6,23.060177,72.636381
S-003147,Stop 03147,R-0191,7,23.04648,72.649996
S-003148,Stop 03148,R-0191,8,23.027944,72.661318
S-003149,Stop 03149,R-0192,1,22.982242,72.796905
S-003150,Stop 03150,R-0192,2,22.985792,72.794607
S-003151,Stop 03151,R-0192,3,22.991754,72.788553
S-003152,Stop 03152,R-0192,4,22.995671,72.782344
S-003153,Stop 03153,R-0192,5,23.000044,72.781235
S-003154,Stop 03154,R-0192,6,22.994456,72.777376
S-003155,Stop 03155,R-0192,7,23.000291,72.776021
S-003156,Stop 03156,R-0192,8,23.005301,72.772577
S-003157,Stop 03157,R-0192,9,23.008094,72.760289
S-003158,Stop 03158,R-0192,10,23.006432,72.76434
S-003159,Stop 03159,R-0192,11,23.012667,72.760725
S-003160,Stop 03160,R-0192,12,23.01349,72.748747
S-003161,Stop 03161,R-0192,13,23.017264,72.745501
S-003162,Stop 03162,R-0192,14,23.017095,72.743174
S-003163,Stop 03163,R-0192,15,23.018669,72.740408
S-003164,Stop 03164,R-0192,16,23.018097,72.731423
S-003165,Stop 03165,R-0192,17,23.024531,72.727313
S-003166,Stop 03166,R-0192,18,23.024194,72.721604
S-003167,Stop 03167,R-0192,19,23.029765,72.724439
S-003168,Stop 03168,R-0192,20,23.032133,72.722151
S-003169,Stop 03169,R-0192,21,23.039081,72.718309
S-003170,Stop 03170,R-0193,1,23.149374,72.645214
S-003171,Stop 03171,R-0193,2,23.157276,72.656551
S-003172,Stop 03172,R-0193,3,23.158118,72.679465
S-003173,Stop 03173,R-0193,4,23.15238,72.692564
S-003174,Stop 03174,R-0193,5,23.154625,72.704574
S-003175,Stop 03175,R-0193,6,23.16444,72.71836
S-003176,Stop 03176,R-0193,7,23.164251,72.727835
S-003177,Stop 03177,R-0193,8,23.165694,72.744401
S-003178,Stop 03178,R-0193,9,23.164151,72.752331
S-003179,Stop 03179,R-0193,10,23.16619,72.769696
S-003180,Stop 03180,R-0193,11,23.166671,72.783935
S-003181,Stop 03181,R-0193,12,23.175285,72.796475
S-003182,Stop 03182,R-0193,13,23.175003,72.806845
S-003183,Stop 03183,R-0193,14,23.176461,72.821744
S-003184,Stop 03184,R-0193,15,23.177726,72.84341
S-003185,Stop 03185,R-0193,16,23.175012,72.850143
S-003186,Stop 03186,R-0193,17,23.181189,72.867998
S-003187,Stop 03187,R-0193,18,23.178886,72.876241
S-003188,Stop 03188,R-0193,19,23.180062,72.895892
S-003189,Stop 03189,R-0194,1,23.057215,72.887369
S-003190,Stop 03190,R-0194,2,23.066818,72.883219
S-003191,Stop 03191,R-0194,3,23.064266,72.878789
S-003192,Stop 03192,R-0194,4,23.075245,72.873614
S-003193,Stop 03193,R-0194,5,23.07454,72.877288
S-003194,Stop 03194,R-0194,6,23.082673,72.867966
S-003195,Stop 03195,R-0194,7,23.083737,72.86478
S-003196,Stop 03196,R-0194,8,23.093992,72.864467
S-003197,Stop 03197,R-0194,9,23.090686,72.860078
S-003198,Stop 03198,R-0194,10,23.102134,72.853686
S-003199,Stop 03199,R-0194,11,23.100365,72.854256
S-003200,Stop 03200,R-0194,12,23.112808,72.847274
S-003201,Stop 03201,R-0194,13,23.111158,72.849691
S-003202,Stop 03202,R-0194,14,23.120811,72.836363
S-003203,Stop 03203,R-0194,15,23.117916,72.839836
S-003204,Stop 03204,R-0194,16,23.127037,72.835945
S-003205,Stop 03205,R-0194,17,23.133688,72.827632
S-003206,Stop 03206,R-0194,18,23.134674,72.829492
S-003207,Stop 03207,R-0194,19,23.137477,72.820798
S-003208,Stop 03208,R-0194,20,23.149552,72.820011
S-003209,Stop 03209,R-0195,1,23.159091,72.717406
S-003210,Stop 03210,R-0195,2,23.141258,72.733372
S-003211,Stop 03211,R-0195,3,23.12422,72.743768
S-003212,Stop 03212,R-0195,4,23.10791,72.749978
S-003213,Stop 03213,R-0195,5,23.092261,72.761358
S-003214,Stop 03214,R-0195,6,23.069874,72.764571
S-003215,Stop 03215,R-0195,7,23.054186,72.773372
S-003216,Stop 03216,R-0195,8,23.036025,72.785425
S-003217,Stop 03217,R-0195,9,23.019578,72.795262
S-003218,Stop 03218,R-0195,10,22.998003,72.798109
S-003219,Stop 03219,R-0195,11,22.986708,72.806535
S-003220,Stop 03220,R-0195,12,22.96721,72.825304
S-003221,Stop 03221,R-0195,13,22.94455,72.829616
S-003222,Stop 03222,R-0195,14,22.92585,72.839387
S-003223,Stop 03223,R-0196,1,22.986158,72.861854
S-003224,Stop 03224,R-0196,2,22.977698,72.848941
S-003225,Stop 03225,R-0196,3,22.975527,72.841072
S-003226,Stop 03226,R-0196,4,22.979305,72.827864
S-003227,Stop 03227,R-0196,5,22.976212,72.813871
S-003228,Stop 03228,R-0196,6,22.968077,72.795317
S-003229,Stop 03229,R-0196,7,22.965344,72.785571
S-003230,Stop 03230,R-0196,8,22.960277,72.774362
S-003231,Stop 03231,R-0196,9,22.96375,72.76457
S-003232,Stop 03232,R-0196,10,22.963138,72.746231
S-003233,Stop 03233,R-0196,11,22.957768,72.741057
S-003234,Stop 03234,R-0196,12,22.952035,72.726884
S-003235,Stop 03235,R-0196,13,22.954882,72.7111
S-003236,Stop 03236,R-0196,14,22.950406,72.701529
S-003237,Stop 03237,R-0196,15,22.946466,72.686596
S-003238,Stop 03238,R-0196,16,22.941084,72.679851
S-003239,Stop 03239,R-0197,1,23.000042,72.50927
S-003240,Stop 03240,R-0197,2,22.995104,72.524928
S-003241,Stop 03241,R-0197,3,22.992673,72.53248
S-003242,Stop 03242,R-0197,4,22.990256,72.543223
S-003243,Stop 03243,R-0197,5,22.985085,72.551219
S-003244,Stop 03244,R-0197,6,22.978008,72.570905
S-003245,Stop 03245,R-0197,7,22.977808,72.582643
S-003246,Stop 03246,R-0197,8,22.971842,72.593011
S-003247,Stop 03247,R-0197,9,22.965384,72.598082
S-003248,Stop 03248,R-0197,10,22.954763,72.607759
S-003249,Stop 03249,R-0197,11,22.952783,72.623231
S-003250,Stop 03250,R-0197,12,22.950921,72.633743
S-003251,Stop 03251,R-0197,13,22.938402,72.647849
S-003252,Stop 03252,R-0197,14,22.934908,72.657796
S-003253,Stop 03253,R-0197,15,22.932153,72.670998
S-003254,Stop 03254,R-0197,16,22.923116,72.677897
S-003255,Stop 03255,R-0197,17,22.917363,72.691245
S-003256,Stop 03256,R-0197,18,22.913386,72.697919
S-003257,Stop 03257,R-0198,1,22.904511,72.877264
S-003258,Stop 03258,R-0198,2,22.930781,72.864137
S-003259,Stop 03259,R-0198,3,22.960787,72.846199
S-003260,Stop 03260,R-0198,4,22.987359,72.837073
S-003261,Stop 03261,R-0198,5,23.018247,72.826913
S-003262,Stop 03262,R-0198,6,23.045327,72.81157
S-003263,Stop 03263,R-0198,7,23.074881,72.798768
S-003264,Stop 03264,R-0198,8,23.097607,72.787905
S-003265,Stop 03265,R-0198,9,23.123048,72.769705
S-003266,Stop 03266,R-0198,10,23.152513,72.764222
S-003267,Stop 03267,R-0199,1,23.150368,72.777199
S-003268,Stop 03268,R-0199,2,23.12807,72.78121
S-003269,Stop 03269,R-0199,3,23.10168,72.780691
S-003270,Stop 03270,R-0199,4,23.08045,72.783252
S-003271,Stop 03271,R-0199,5,23.059884,72.777347
S-003272,Stop 03272,R-0199,6,23.029924,72.776409
S-003273,Stop 03273,R-0199,7,23.006626,72.783358
S-003274,Stop 03274,R-0199,8,22.992075,72.783819
S-003275,Stop 03275,R-0199,9,22.960831,72.780471
S-003276,Stop 03276,R-0199,10,22.945171,72.786755
S-003277,Stop 03277,R-0200,1,22.974885,72.834886
S-003278,Stop 03278,R-0200,2,22.986228,72.826711
S-003279,Stop 03279,R-0200,3,23.001118,72.824386
S-003280,Stop 03280,R-0200,4,23.017408,72.819857
S-003281,Stop 03281,R-0200,5,23.023248,72.810999
S-003282,Stop 03282,R-0200,6,23.040445,72.799272
S-003283,Stop 03283,R-0200,7,23.047181,72.800573
S-003284,Stop 03284,R-0200,8,23.0628,72.794055
